[
{
"ccomune":"ALTRO",
"cprovincia":"ALTRO",
"cregione":"ALTRO",
"cnome":"",
"canno_inserimento":"2009",
"cdata_e_ora_inserimento":"2009-09-15T16:18:49Z",
"cidentificatore_in_openstreetmap":"497136764",
"clongitudine":"13.6450329",
"clatitudine":"45.9626147999999"
}
,
{
"ccomune":"ALTRO",
"cprovincia":"ALTRO",
"cregione":"ALTRO",
"cnome":"",
"canno_inserimento":"2012",
"cdata_e_ora_inserimento":"2012-09-30T14:35:48Z",
"cidentificatore_in_openstreetmap":"1939805614",
"clongitudine":"13.6352087999999",
"clatitudine":"45.9254675999999"
}
,
{
"ccomune":"ALTRO",
"cprovincia":"ALTRO",
"cregione":"ALTRO",
"cnome":"Alimen\"\"tati\"\"",
"canno_inserimento":"2015",
"cdata_e_ora_inserimento":"2015-01-06T16:42:53Z",
"cidentificatore_in_openstreetmap":"3273347398",
"clongitudine":"8.95280039999999",
"clatitudine":"45.872582"
}
,
{
"ccomune":"ALTRO",
"cprovincia":"ALTRO",
"cregione":"ALTRO",
"cnome":"Billa",
"canno_inserimento":"2013",
"cdata_e_ora_inserimento":"2013-09-07T22:05:04Z",
"cidentificatore_in_openstreetmap":"670866418",
"clongitudine":"12.4214237",
"clatitudine":"46.7499095"
}
,
{
"ccomune":"ALTRO",
"cprovincia":"ALTRO",
"cregione":"ALTRO",
"cnome":"Coop",
"canno_inserimento":"2014",
"cdata_e_ora_inserimento":"2014-12-29T20:50:21Z",
"cidentificatore_in_openstreetmap":"1400152206",
"clongitudine":"9.03549379999999",
"clatitudine":"45.8344887"
}
,
{
"ccomune":"ALTRO",
"cprovincia":"ALTRO",
"cregione":"ALTRO",
"cnome":"Coop",
"canno_inserimento":"2015",
"cdata_e_ora_inserimento":"2015-11-15T21:18:25Z",
"cidentificatore_in_openstreetmap":"3838016019",
"clongitudine":"8.9399323",
"clatitudine":"45.8532845"
}
,
{
"ccomune":"ALTRO",
"cprovincia":"ALTRO",
"cregione":"ALTRO",
"cnome":"Crai",
"canno_inserimento":"2012",
"cdata_e_ora_inserimento":"2012-10-12T22:00:06Z",
"cidentificatore_in_openstreetmap":"1959348848",
"clongitudine":"8.7112549",
"clatitudine":"46.1205994"
}
,
{
"ccomune":"ALTRO",
"cprovincia":"ALTRO",
"cregione":"ALTRO",
"cnome":"Denner",
"canno_inserimento":"2014",
"cdata_e_ora_inserimento":"2014-09-08T18:00:00Z",
"cidentificatore_in_openstreetmap":"3067074487",
"clongitudine":"9.0315598",
"clatitudine":"45.835067"
}
,
{
"ccomune":"ALTRO",
"cprovincia":"ALTRO",
"cregione":"ALTRO",
"cnome":"FAMA",
"canno_inserimento":"2014",
"cdata_e_ora_inserimento":"2014-03-22T14:56:37Z",
"cidentificatore_in_openstreetmap":"1959356548",
"clongitudine":"13.8671275",
"clatitudine":"45.7058333"
}
,
{
"ccomune":"ALTRO",
"cprovincia":"ALTRO",
"cregione":"ALTRO",
"cnome":"Hofer",
"canno_inserimento":"2014",
"cdata_e_ora_inserimento":"2014-07-08T15:44:16Z",
"cidentificatore_in_openstreetmap":"2954437020",
"clongitudine":"12.4072587999999",
"clatitudine":"46.7455355999999"
}
,
{
"ccomune":"ALTRO",
"cprovincia":"ALTRO",
"cregione":"ALTRO",
"cnome":"Mercator",
"canno_inserimento":"2013",
"cdata_e_ora_inserimento":"2013-11-07T12:54:29Z",
"cidentificatore_in_openstreetmap":"1864405911",
"clongitudine":"13.6374159",
"clatitudine":"45.9308192"
}
,
{
"ccomune":"ALTRO",
"cprovincia":"ALTRO",
"cregione":"ALTRO",
"cnome":"Migros",
"canno_inserimento":"2015",
"cdata_e_ora_inserimento":"2015-02-08T20:21:41Z",
"cidentificatore_in_openstreetmap":"3243137284",
"clongitudine":"8.93661129999999",
"clatitudine":"45.8484501"
}
,
{
"ccomune":"ALTRO",
"cprovincia":"ALTRO",
"cregione":"ALTRO",
"cnome":"Migros Mendrisio Sud",
"canno_inserimento":"2015",
"cdata_e_ora_inserimento":"2015-02-12T20:01:35Z",
"cidentificatore_in_openstreetmap":"3346518652",
"clongitudine":"8.97244929999999",
"clatitudine":"45.8628378"
}
,
{
"ccomune":"ALTRO",
"cprovincia":"ALTRO",
"cregione":"ALTRO",
"cnome":"Spar",
"canno_inserimento":"2011",
"cdata_e_ora_inserimento":"2011-07-11T16:40:19Z",
"cidentificatore_in_openstreetmap":"671016468",
"clongitudine":"12.4179358",
"clatitudine":"46.7477343999999"
}
,
{
"ccomune":"ALTRO",
"cprovincia":"ALTRO",
"cregione":"ALTRO",
"cnome":"Spar",
"canno_inserimento":"2012",
"cdata_e_ora_inserimento":"2012-10-03T01:03:12Z",
"cidentificatore_in_openstreetmap":"599041721",
"clongitudine":"13.8624274",
"clatitudine":"45.7071674999999"
}
,
{
"ccomune":"ALTRO",
"cprovincia":"ALTRO",
"cregione":"ALTRO",
"cnome":"Supermarkt Sölle",
"canno_inserimento":"2015",
"cdata_e_ora_inserimento":"2015-03-10T22:11:03Z",
"cidentificatore_in_openstreetmap":"1874817539",
"clongitudine":"13.2745704",
"clatitudine":"46.5633253"
}
,
{
"ccomune":"Almese",
"cprovincia":"TORINO",
"cregione":"Piemonte",
"cnome":"Crai",
"canno_inserimento":"2015",
"cdata_e_ora_inserimento":"2015-08-25T05:36:43Z",
"cidentificatore_in_openstreetmap":"3713037106",
"clongitudine":"7.3937059",
"clatitudine":"45.1170522"
}
,
{
"ccomune":"Alpignano",
"cprovincia":"TORINO",
"cregione":"Piemonte",
"cnome":"Carrefour Express",
"canno_inserimento":"2014",
"cdata_e_ora_inserimento":"2014-10-06T11:09:17Z",
"cidentificatore_in_openstreetmap":"3114631705",
"clongitudine":"7.5171079",
"clatitudine":"45.1083189"
}
,
{
"ccomune":"Alpignano",
"cprovincia":"TORINO",
"cregione":"Piemonte",
"cnome":"LD",
"canno_inserimento":"2014",
"cdata_e_ora_inserimento":"2014-10-06T11:36:20Z",
"cidentificatore_in_openstreetmap":"3069891233",
"clongitudine":"7.5345945",
"clatitudine":"45.1012928"
}
,
{
"ccomune":"Alpignano",
"cprovincia":"TORINO",
"cregione":"Piemonte",
"cnome":"U2",
"canno_inserimento":"2014",
"cdata_e_ora_inserimento":"2014-07-26T10:42:37Z",
"cidentificatore_in_openstreetmap":"2980644972",
"clongitudine":"7.521881",
"clatitudine":"45.0954158999999"
}
,
{
"ccomune":"Avigliana",
"cprovincia":"TORINO",
"cregione":"Piemonte",
"cnome":"centro commerciale",
"canno_inserimento":"2014",
"cdata_e_ora_inserimento":"2014-03-10T08:40:42Z",
"cidentificatore_in_openstreetmap":"2710540030",
"clongitudine":"7.401028",
"clatitudine":"45.0806091999999"
}
,
{
"ccomune":"Bardonecchia",
"cprovincia":"TORINO",
"cregione":"Piemonte",
"cnome":"",
"canno_inserimento":"2015",
"cdata_e_ora_inserimento":"2015-08-26T12:52:52Z",
"cidentificatore_in_openstreetmap":"3700735131",
"clongitudine":"6.702822",
"clatitudine":"45.0789930999999"
}
,
{
"ccomune":"Bardonecchia",
"cprovincia":"TORINO",
"cregione":"Piemonte",
"cnome":"Carrefour express",
"canno_inserimento":"2014",
"cdata_e_ora_inserimento":"2014-05-14T08:32:33Z",
"cidentificatore_in_openstreetmap":"1922310646",
"clongitudine":"6.6981721",
"clatitudine":"45.0806717"
}
,
{
"ccomune":"Bardonecchia",
"cprovincia":"TORINO",
"cregione":"Piemonte",
"cnome":"Simply Market",
"canno_inserimento":"2015",
"cdata_e_ora_inserimento":"2015-08-17T08:56:07Z",
"cidentificatore_in_openstreetmap":"3700735128",
"clongitudine":"6.7015597",
"clatitudine":"45.0791615999999"
}
,
{
"ccomune":"Beinasco",
"cprovincia":"TORINO",
"cregione":"Piemonte",
"cnome":"Conad",
"canno_inserimento":"2014",
"cdata_e_ora_inserimento":"2014-03-04T14:35:09Z",
"cidentificatore_in_openstreetmap":"2701341894",
"clongitudine":"7.6028682",
"clatitudine":"45.0087558999999"
}
,
{
"ccomune":"Beinasco",
"cprovincia":"TORINO",
"cregione":"Piemonte",
"cnome":"CRAI",
"canno_inserimento":"2012",
"cdata_e_ora_inserimento":"2012-04-30T10:58:46Z",
"cidentificatore_in_openstreetmap":"1709994426",
"clongitudine":"7.6010379",
"clatitudine":"45.0067241"
}
,
{
"ccomune":"Beinasco",
"cprovincia":"TORINO",
"cregione":"Piemonte",
"cnome":"Ipercoop",
"canno_inserimento":"2012",
"cdata_e_ora_inserimento":"2012-11-21T15:29:34Z",
"cidentificatore_in_openstreetmap":"2024894095",
"clongitudine":"7.5931427",
"clatitudine":"45.0239772999999"
}
,
{
"ccomune":"Borgaro Torinese",
"cprovincia":"TORINO",
"cregione":"Piemonte",
"cnome":"",
"canno_inserimento":"2012",
"cdata_e_ora_inserimento":"2012-09-10T07:36:02Z",
"cidentificatore_in_openstreetmap":"1907967859",
"clongitudine":"7.6606926",
"clatitudine":"45.1515508"
}
,
{
"ccomune":"Borgaro Torinese",
"cprovincia":"TORINO",
"cregione":"Piemonte",
"cnome":"",
"canno_inserimento":"2012",
"cdata_e_ora_inserimento":"2012-09-10T11:17:47Z",
"cidentificatore_in_openstreetmap":"1908194311",
"clongitudine":"7.6550918",
"clatitudine":"45.1504827999999"
}
,
{
"ccomune":"Bricherasio",
"cprovincia":"TORINO",
"cregione":"Piemonte",
"cnome":"Md Discount",
"canno_inserimento":"2015",
"cdata_e_ora_inserimento":"2015-11-28T14:34:40Z",
"cidentificatore_in_openstreetmap":"3865110271",
"clongitudine":"7.3109233",
"clatitudine":"44.8254804999999"
}
,
{
"ccomune":"Bruino",
"cprovincia":"TORINO",
"cregione":"Piemonte",
"cnome":"EKOM",
"canno_inserimento":"2015",
"cdata_e_ora_inserimento":"2015-11-15T16:25:57Z",
"cidentificatore_in_openstreetmap":"3837544568",
"clongitudine":"7.471267",
"clatitudine":"45.0188139999999"
}
,
{
"ccomune":"Bruino",
"cprovincia":"TORINO",
"cregione":"Piemonte",
"cnome":"Simply Market",
"canno_inserimento":"2015",
"cdata_e_ora_inserimento":"2015-11-15T16:38:37Z",
"cidentificatore_in_openstreetmap":"3837557446",
"clongitudine":"7.4771622",
"clatitudine":"45.0192179"
}
,
{
"ccomune":"Cambiano",
"cprovincia":"TORINO",
"cregione":"Piemonte",
"cnome":"A&O",
"canno_inserimento":"2010",
"cdata_e_ora_inserimento":"2010-08-22T21:45:30Z",
"cidentificatore_in_openstreetmap":"874492378",
"clongitudine":"7.7750162",
"clatitudine":"44.965043"
}
,
{
"ccomune":"Carema",
"cprovincia":"TORINO",
"cregione":"Piemonte",
"cnome":"",
"canno_inserimento":"2013",
"cdata_e_ora_inserimento":"2013-03-15T13:51:49Z",
"cidentificatore_in_openstreetmap":"1775920894",
"clongitudine":"7.808025",
"clatitudine":"45.5831208999999"
}
,
{
"ccomune":"Carmagnola",
"cprovincia":"TORINO",
"cregione":"Piemonte",
"cnome":"Carrefour",
"canno_inserimento":"2015",
"cdata_e_ora_inserimento":"2015-12-09T15:58:47Z",
"cidentificatore_in_openstreetmap":"3884859746",
"clongitudine":"7.7187979",
"clatitudine":"44.8505327"
}
,
{
"ccomune":"Carmagnola",
"cprovincia":"TORINO",
"cregione":"Piemonte",
"cnome":"C.F. MARKET SNC",
"canno_inserimento":"2013",
"cdata_e_ora_inserimento":"2013-12-06T10:45:55Z",
"cidentificatore_in_openstreetmap":"2510518330",
"clongitudine":"7.7741292",
"clatitudine":"44.8556023"
}
,
{
"ccomune":"Casalborgone",
"cprovincia":"TORINO",
"cregione":"Piemonte",
"cnome":"",
"canno_inserimento":"2013",
"cdata_e_ora_inserimento":"2013-08-01T19:16:01Z",
"cidentificatore_in_openstreetmap":"2404038069",
"clongitudine":"7.942121",
"clatitudine":"45.1298980999999"
}
,
{
"ccomune":"Castellamonte",
"cprovincia":"TORINO",
"cregione":"Piemonte",
"cnome":"Bennet",
"canno_inserimento":"2012",
"cdata_e_ora_inserimento":"2012-03-14T09:22:36Z",
"cidentificatore_in_openstreetmap":"1674351852",
"clongitudine":"7.7127226",
"clatitudine":"45.3819815"
}
,
{
"ccomune":"Castellamonte",
"cprovincia":"TORINO",
"cregione":"Piemonte",
"cnome":"Dpiù Discount",
"canno_inserimento":"2015",
"cdata_e_ora_inserimento":"2015-02-19T00:06:31Z",
"cidentificatore_in_openstreetmap":"1674352033",
"clongitudine":"7.7153126",
"clatitudine":"45.3802774999999"
}
,
{
"ccomune":"Castellamonte",
"cprovincia":"TORINO",
"cregione":"Piemonte",
"cnome":"Penny Market Castellamonte",
"canno_inserimento":"2012",
"cdata_e_ora_inserimento":"2012-01-05T21:12:29Z",
"cidentificatore_in_openstreetmap":"1201924371",
"clongitudine":"7.7155069",
"clatitudine":"45.3705824"
}
,
{
"ccomune":"Cavour",
"cprovincia":"TORINO",
"cregione":"Piemonte",
"cnome":"Fresco Fresco",
"canno_inserimento":"2013",
"cdata_e_ora_inserimento":"2013-03-24T11:38:33Z",
"cidentificatore_in_openstreetmap":"2218391254",
"clongitudine":"7.3721187",
"clatitudine":"44.7846733"
}
,
{
"ccomune":"Cavour",
"cprovincia":"TORINO",
"cregione":"Piemonte",
"cnome":"Maxisconto",
"canno_inserimento":"2013",
"cdata_e_ora_inserimento":"2013-03-26T17:53:52Z",
"cidentificatore_in_openstreetmap":"2225728016",
"clongitudine":"7.3756745",
"clatitudine":"44.7882043999999"
}
,
{
"ccomune":"Ceres",
"cprovincia":"TORINO",
"cregione":"Piemonte",
"cnome":"CRAI EveryDay Market",
"canno_inserimento":"2012",
"cdata_e_ora_inserimento":"2012-05-21T11:55:22Z",
"cidentificatore_in_openstreetmap":"1757187296",
"clongitudine":"7.3928346",
"clatitudine":"45.3082173999999"
}
,
{
"ccomune":"Cesana Torinese",
"cprovincia":"TORINO",
"cregione":"Piemonte",
"cnome":"GRIA S.R.L.",
"canno_inserimento":"2015",
"cdata_e_ora_inserimento":"2015-03-10T16:42:00Z",
"cidentificatore_in_openstreetmap":"3392711377",
"clongitudine":"6.7906875",
"clatitudine":"44.9534554999999"
}
,
{
"ccomune":"Chieri",
"cprovincia":"TORINO",
"cregione":"Piemonte",
"cnome":"",
"canno_inserimento":"2016",
"cdata_e_ora_inserimento":"2016-02-10T14:56:43Z",
"cidentificatore_in_openstreetmap":"618071197",
"clongitudine":"7.8171757",
"clatitudine":"45.0138718999999"
}
,
{
"ccomune":"Chivasso",
"cprovincia":"TORINO",
"cregione":"Piemonte",
"cnome":"",
"canno_inserimento":"2010",
"cdata_e_ora_inserimento":"2010-10-26T20:57:15Z",
"cidentificatore_in_openstreetmap":"966248941",
"clongitudine":"7.8936968",
"clatitudine":"45.1864537"
}
,
{
"ccomune":"Chivasso",
"cprovincia":"TORINO",
"cregione":"Piemonte",
"cnome":"",
"canno_inserimento":"2010",
"cdata_e_ora_inserimento":"2010-10-27T21:46:21Z",
"cidentificatore_in_openstreetmap":"967311713",
"clongitudine":"7.8869981",
"clatitudine":"45.1879284999999"
}
,
{
"ccomune":"Chivasso",
"cprovincia":"TORINO",
"cregione":"Piemonte",
"cnome":"",
"canno_inserimento":"2010",
"cdata_e_ora_inserimento":"2010-10-27T21:46:21Z",
"cidentificatore_in_openstreetmap":"967311714",
"clongitudine":"7.892899",
"clatitudine":"45.1950888"
}
,
{
"ccomune":"Collegno",
"cprovincia":"TORINO",
"cregione":"Piemonte",
"cnome":"Ro Market",
"canno_inserimento":"2013",
"cdata_e_ora_inserimento":"2013-04-22T19:30:40Z",
"cidentificatore_in_openstreetmap":"2277501082",
"clongitudine":"7.5870945",
"clatitudine":"45.0772766999999"
}
,
{
"ccomune":"Condove",
"cprovincia":"TORINO",
"cregione":"Piemonte",
"cnome":"CRAI",
"canno_inserimento":"2014",
"cdata_e_ora_inserimento":"2014-08-29T19:52:13Z",
"cidentificatore_in_openstreetmap":"3049462833",
"clongitudine":"7.3112677",
"clatitudine":"45.116334"
}
,
{
"ccomune":"Cuorgne'",
"cprovincia":"TORINO",
"cregione":"Piemonte",
"cnome":"CRAI",
"canno_inserimento":"2014",
"cdata_e_ora_inserimento":"2014-08-31T23:19:16Z",
"cidentificatore_in_openstreetmap":"3052681241",
"clongitudine":"7.6524482",
"clatitudine":"45.3940303999999"
}
,
{
"ccomune":"Druento",
"cprovincia":"TORINO",
"cregione":"Piemonte",
"cnome":"Discount",
"canno_inserimento":"2015",
"cdata_e_ora_inserimento":"2015-12-16T13:01:23Z",
"cidentificatore_in_openstreetmap":"3895063201",
"clongitudine":"7.5830638",
"clatitudine":"45.1293815"
}
,
{
"ccomune":"Feletto",
"cprovincia":"TORINO",
"cregione":"Piemonte",
"cnome":"Crai",
"canno_inserimento":"2012",
"cdata_e_ora_inserimento":"2012-11-28T06:55:37Z",
"cidentificatore_in_openstreetmap":"2035524998",
"clongitudine":"7.7461824",
"clatitudine":"45.3055720999999"
}
,
{
"ccomune":"Giaveno",
"cprovincia":"TORINO",
"cregione":"Piemonte",
"cnome":"Carrefour Express",
"canno_inserimento":"2015",
"cdata_e_ora_inserimento":"2015-08-16T16:58:24Z",
"cidentificatore_in_openstreetmap":"3700025117",
"clongitudine":"7.3532194",
"clatitudine":"45.0409529"
}
,
{
"ccomune":"Giaveno",
"cprovincia":"TORINO",
"cregione":"Piemonte",
"cnome":"Simply Market",
"canno_inserimento":"2015",
"cdata_e_ora_inserimento":"2015-08-16T16:58:24Z",
"cidentificatore_in_openstreetmap":"3700025118",
"clongitudine":"7.3522253",
"clatitudine":"45.0412439999999"
}
,
{
"ccomune":"Grugliasco",
"cprovincia":"TORINO",
"cregione":"Piemonte",
"cnome":"A&O",
"canno_inserimento":"2012",
"cdata_e_ora_inserimento":"2012-04-15T20:05:53Z",
"cidentificatore_in_openstreetmap":"1718447170",
"clongitudine":"7.603197",
"clatitudine":"45.0687497999999"
}
,
{
"ccomune":"Grugliasco",
"cprovincia":"TORINO",
"cregione":"Piemonte",
"cnome":"Carrefour",
"canno_inserimento":"2012",
"cdata_e_ora_inserimento":"2012-01-22T17:19:03Z",
"cidentificatore_in_openstreetmap":"1218191174",
"clongitudine":"7.6118534",
"clatitudine":"45.0564736999999"
}
,
{
"ccomune":"Grugliasco",
"cprovincia":"TORINO",
"cregione":"Piemonte",
"cnome":"Compro Qui",
"canno_inserimento":"2012",
"cdata_e_ora_inserimento":"2012-06-20T18:32:49Z",
"cidentificatore_in_openstreetmap":"1796183556",
"clongitudine":"7.5790944",
"clatitudine":"45.0631685"
}
,
{
"ccomune":"Grugliasco",
"cprovincia":"TORINO",
"cregione":"Piemonte",
"cnome":"GS",
"canno_inserimento":"2012",
"cdata_e_ora_inserimento":"2012-06-15T19:44:15Z",
"cidentificatore_in_openstreetmap":"1789000124",
"clongitudine":"7.5761867",
"clatitudine":"45.0636461"
}
,
{
"ccomune":"Grugliasco",
"cprovincia":"TORINO",
"cregione":"Piemonte",
"cnome":"In's",
"canno_inserimento":"2012",
"cdata_e_ora_inserimento":"2012-04-15T20:18:54Z",
"cidentificatore_in_openstreetmap":"1718458323",
"clongitudine":"7.6000911",
"clatitudine":"45.0685042"
}
,
{
"ccomune":"Ivrea",
"cprovincia":"TORINO",
"cregione":"Piemonte",
"cnome":"A&O",
"canno_inserimento":"2014",
"cdata_e_ora_inserimento":"2014-03-04T18:57:11Z",
"cidentificatore_in_openstreetmap":"2701647428",
"clongitudine":"7.8706935",
"clatitudine":"45.4421796999999"
}
,
{
"ccomune":"Ivrea",
"cprovincia":"TORINO",
"cregione":"Piemonte",
"cnome":"Carrefour Express",
"canno_inserimento":"2014",
"cdata_e_ora_inserimento":"2014-02-11T09:20:01Z",
"cidentificatore_in_openstreetmap":"1892546654",
"clongitudine":"7.8868151",
"clatitudine":"45.4685188999999"
}
,
{
"ccomune":"Ivrea",
"cprovincia":"TORINO",
"cregione":"Piemonte",
"cnome":"CONAD",
"canno_inserimento":"2014",
"cdata_e_ora_inserimento":"2014-06-19T20:17:08Z",
"cidentificatore_in_openstreetmap":"2912988764",
"clongitudine":"7.9071739",
"clatitudine":"45.4701401"
}
,
{
"ccomune":"Ivrea",
"cprovincia":"TORINO",
"cregione":"Piemonte",
"cnome":"Ekom",
"canno_inserimento":"2013",
"cdata_e_ora_inserimento":"2013-12-10T18:26:34Z",
"cidentificatore_in_openstreetmap":"2574685808",
"clongitudine":"7.9027492",
"clatitudine":"45.4697358"
}
,
{
"ccomune":"Ivrea",
"cprovincia":"TORINO",
"cregione":"Piemonte",
"cnome":"Lidl",
"canno_inserimento":"2013",
"cdata_e_ora_inserimento":"2013-12-07T16:15:47Z",
"cidentificatore_in_openstreetmap":"2509368083",
"clongitudine":"7.8939656",
"clatitudine":"45.470069"
}
,
{
"ccomune":"La Loggia",
"cprovincia":"TORINO",
"cregione":"Piemonte",
"cnome":"Il Gigante",
"canno_inserimento":"2013",
"cdata_e_ora_inserimento":"2013-02-27T00:21:23Z",
"cidentificatore_in_openstreetmap":"2176500395",
"clongitudine":"7.6693825",
"clatitudine":"44.9633445999999"
}
,
{
"ccomune":"Lanzo Torinese",
"cprovincia":"TORINO",
"cregione":"Piemonte",
"cnome":"CRAI",
"canno_inserimento":"2015",
"cdata_e_ora_inserimento":"2015-08-16T17:59:52Z",
"cidentificatore_in_openstreetmap":"3050482188",
"clongitudine":"7.4747246",
"clatitudine":"45.2748092"
}
,
{
"ccomune":"Monastero di Lanzo",
"cprovincia":"TORINO",
"cregione":"Piemonte",
"cnome":"Edelweiss",
"canno_inserimento":"2014",
"cdata_e_ora_inserimento":"2014-06-10T10:57:02Z",
"cidentificatore_in_openstreetmap":"2908898891",
"clongitudine":"7.4255917",
"clatitudine":"45.3000732"
}
,
{
"ccomune":"Moncalieri",
"cprovincia":"TORINO",
"cregione":"Piemonte",
"cnome":"Esselunga",
"canno_inserimento":"2013",
"cdata_e_ora_inserimento":"2013-11-01T21:03:26Z",
"cidentificatore_in_openstreetmap":"1932166800",
"clongitudine":"7.6571864",
"clatitudine":"45.0095687"
}
,
{
"ccomune":"Nichelino",
"cprovincia":"TORINO",
"cregione":"Piemonte",
"cnome":"U2 SUPERMERCATI",
"canno_inserimento":"2015",
"cdata_e_ora_inserimento":"2015-01-01T18:01:02Z",
"cidentificatore_in_openstreetmap":"1819313439",
"clongitudine":"7.6489757",
"clatitudine":"44.9963804"
}
,
{
"ccomune":"Orio Canavese",
"cprovincia":"TORINO",
"cregione":"Piemonte",
"cnome":"Alimentari Torreano",
"canno_inserimento":"2014",
"cdata_e_ora_inserimento":"2014-06-04T08:36:28Z",
"cidentificatore_in_openstreetmap":"2897287697",
"clongitudine":"7.8630413",
"clatitudine":"45.3286969999999"
}
,
{
"ccomune":"Oulx",
"cprovincia":"TORINO",
"cregione":"Piemonte",
"cnome":"Punto",
"canno_inserimento":"2015",
"cdata_e_ora_inserimento":"2015-01-22T18:10:05Z",
"cidentificatore_in_openstreetmap":"3304632121",
"clongitudine":"6.8337901",
"clatitudine":"45.0333176999999"
}
,
{
"ccomune":"Pianezza",
"cprovincia":"TORINO",
"cregione":"Piemonte",
"cnome":"",
"canno_inserimento":"2012",
"cdata_e_ora_inserimento":"2012-03-29T09:14:51Z",
"cidentificatore_in_openstreetmap":"1695898281",
"clongitudine":"7.543502",
"clatitudine":"45.1092130999999"
}
,
{
"ccomune":"Pianezza",
"cprovincia":"TORINO",
"cregione":"Piemonte",
"cnome":"Punto Simply",
"canno_inserimento":"2015",
"cdata_e_ora_inserimento":"2015-11-02T10:48:49Z",
"cidentificatore_in_openstreetmap":"2303698265",
"clongitudine":"7.5544953",
"clatitudine":"45.1040238"
}
,
{
"ccomune":"Pinerolo",
"cprovincia":"TORINO",
"cregione":"Piemonte",
"cnome":"Carrefour",
"canno_inserimento":"2013",
"cdata_e_ora_inserimento":"2013-08-20T19:10:47Z",
"cidentificatore_in_openstreetmap":"403270366",
"clongitudine":"7.3002396",
"clatitudine":"44.8837176999999"
}
,
{
"ccomune":"Pinerolo",
"cprovincia":"TORINO",
"cregione":"Piemonte",
"cnome":"Carrefour Express",
"canno_inserimento":"2013",
"cdata_e_ora_inserimento":"2013-04-21T09:24:19Z",
"cidentificatore_in_openstreetmap":"2274920407",
"clongitudine":"7.3351692",
"clatitudine":"44.8848954999999"
}
,
{
"ccomune":"Pinerolo",
"cprovincia":"TORINO",
"cregione":"Piemonte",
"cnome":"Ipercoop Pinerolo",
"canno_inserimento":"2010",
"cdata_e_ora_inserimento":"2010-02-03T21:47:12Z",
"cidentificatore_in_openstreetmap":"628081694",
"clongitudine":"7.352749",
"clatitudine":"44.8839072"
}
,
{
"ccomune":"Pinerolo",
"cprovincia":"TORINO",
"cregione":"Piemonte",
"cnome":"Simply",
"canno_inserimento":"2013",
"cdata_e_ora_inserimento":"2013-01-30T21:18:15Z",
"cidentificatore_in_openstreetmap":"2135367787",
"clongitudine":"7.3389853",
"clatitudine":"44.8864377"
}
,
{
"ccomune":"Poirino",
"cprovincia":"TORINO",
"cregione":"Piemonte",
"cnome":"",
"canno_inserimento":"2013",
"cdata_e_ora_inserimento":"2013-06-25T12:28:15Z",
"cidentificatore_in_openstreetmap":"2360395664",
"clongitudine":"7.8438522",
"clatitudine":"44.9194064"
}
,
{
"ccomune":"Poirino",
"cprovincia":"TORINO",
"cregione":"Piemonte",
"cnome":"",
"canno_inserimento":"2013",
"cdata_e_ora_inserimento":"2013-06-25T13:04:47Z",
"cidentificatore_in_openstreetmap":"2360435325",
"clongitudine":"7.8479935",
"clatitudine":"44.9197558999999"
}
,
{
"ccomune":"Poirino",
"cprovincia":"TORINO",
"cregione":"Piemonte",
"cnome":"",
"canno_inserimento":"2013",
"cdata_e_ora_inserimento":"2013-06-25T13:11:00Z",
"cidentificatore_in_openstreetmap":"2360440123",
"clongitudine":"7.848412",
"clatitudine":"44.919294"
}
,
{
"ccomune":"Poirino",
"cprovincia":"TORINO",
"cregione":"Piemonte",
"cnome":"",
"canno_inserimento":"2013",
"cdata_e_ora_inserimento":"2013-06-25T13:22:03Z",
"cidentificatore_in_openstreetmap":"2360448808",
"clongitudine":"7.8374256",
"clatitudine":"44.9238124999999"
}
,
{
"ccomune":"Pragelato",
"cprovincia":"TORINO",
"cregione":"Piemonte",
"cnome":"Albergian",
"canno_inserimento":"2013",
"cdata_e_ora_inserimento":"2013-12-21T18:38:34Z",
"cidentificatore_in_openstreetmap":"1575896028",
"clongitudine":"6.9424917",
"clatitudine":"45.0158337"
}
,
{
"ccomune":"Rivalta di Torino",
"cprovincia":"TORINO",
"cregione":"Piemonte",
"cnome":"Carrefour Market",
"canno_inserimento":"2014",
"cdata_e_ora_inserimento":"2014-06-06T10:06:08Z",
"cidentificatore_in_openstreetmap":"2001861322",
"clongitudine":"7.5073065",
"clatitudine":"45.0114773"
}
,
{
"ccomune":"Rivalta di Torino",
"cprovincia":"TORINO",
"cregione":"Piemonte",
"cnome":"Esselunga",
"canno_inserimento":"2012",
"cdata_e_ora_inserimento":"2012-12-14T16:12:18Z",
"cidentificatore_in_openstreetmap":"1932202616",
"clongitudine":"7.5543012",
"clatitudine":"45.0098126999999"
}
,
{
"ccomune":"Rivalta di Torino",
"cprovincia":"TORINO",
"cregione":"Piemonte",
"cnome":"LD Market",
"canno_inserimento":"2009",
"cdata_e_ora_inserimento":"2009-08-11T11:01:59Z",
"cidentificatore_in_openstreetmap":"461657421",
"clongitudine":"7.5560508",
"clatitudine":"45.0119645999999"
}
,
{
"ccomune":"Rivarolo Canavese",
"cprovincia":"TORINO",
"cregione":"Piemonte",
"cnome":"Acqua & Sapone",
"canno_inserimento":"2015",
"cdata_e_ora_inserimento":"2015-02-10T22:07:31Z",
"cidentificatore_in_openstreetmap":"2012962306",
"clongitudine":"7.7275726",
"clatitudine":"45.3202245"
}
,
{
"ccomune":"Rivarolo Canavese",
"cprovincia":"TORINO",
"cregione":"Piemonte",
"cnome":"Europrezzi",
"canno_inserimento":"2013",
"cdata_e_ora_inserimento":"2013-03-17T07:24:42Z",
"cidentificatore_in_openstreetmap":"2024749752",
"clongitudine":"7.7395669",
"clatitudine":"45.3126542999999"
}
,
{
"ccomune":"Rivarolo Canavese",
"cprovincia":"TORINO",
"cregione":"Piemonte",
"cnome":"EuroSpin",
"canno_inserimento":"2015",
"cdata_e_ora_inserimento":"2015-02-10T22:07:31Z",
"cidentificatore_in_openstreetmap":"1975052988",
"clongitudine":"7.7283894",
"clatitudine":"45.3201705"
}
,
{
"ccomune":"Rivarolo Canavese",
"cprovincia":"TORINO",
"cregione":"Piemonte",
"cnome":"Il Gigante",
"canno_inserimento":"2013",
"cdata_e_ora_inserimento":"2013-09-24T21:28:20Z",
"cidentificatore_in_openstreetmap":"1988150672",
"clongitudine":"7.7194779",
"clatitudine":"45.3379211999999"
}
,
{
"ccomune":"Rivarolo Canavese",
"cprovincia":"TORINO",
"cregione":"Piemonte",
"cnome":"IN's",
"canno_inserimento":"2012",
"cdata_e_ora_inserimento":"2012-11-11T21:52:46Z",
"cidentificatore_in_openstreetmap":"1746034894",
"clongitudine":"7.716691",
"clatitudine":"45.3361778"
}
,
{
"ccomune":"Rivarolo Canavese",
"cprovincia":"TORINO",
"cregione":"Piemonte",
"cnome":"LD",
"canno_inserimento":"2012",
"cdata_e_ora_inserimento":"2012-10-20T13:29:33Z",
"cidentificatore_in_openstreetmap":"1975052991",
"clongitudine":"7.7369605",
"clatitudine":"45.3151787999999"
}
,
{
"ccomune":"Rivarolo Canavese",
"cprovincia":"TORINO",
"cregione":"Piemonte",
"cnome":"Natura madre",
"canno_inserimento":"2015",
"cdata_e_ora_inserimento":"2015-10-27T08:59:15Z",
"cidentificatore_in_openstreetmap":"2024749051",
"clongitudine":"7.7379602",
"clatitudine":"45.3134371"
}
,
{
"ccomune":"Rivarolo Canavese",
"cprovincia":"TORINO",
"cregione":"Piemonte",
"cnome":"Offertissima Market",
"canno_inserimento":"2012",
"cdata_e_ora_inserimento":"2012-11-13T09:26:22Z",
"cidentificatore_in_openstreetmap":"2012101511",
"clongitudine":"7.7225298",
"clatitudine":"45.3293377"
}
,
{
"ccomune":"Rivarolo Canavese",
"cprovincia":"TORINO",
"cregione":"Piemonte",
"cnome":"Penny Market",
"canno_inserimento":"2012",
"cdata_e_ora_inserimento":"2012-11-15T06:55:18Z",
"cidentificatore_in_openstreetmap":"2012962302",
"clongitudine":"7.7298874",
"clatitudine":"45.319394"
}
,
{
"ccomune":"Rivarolo Canavese",
"cprovincia":"TORINO",
"cregione":"Piemonte",
"cnome":"TiGoTà",
"canno_inserimento":"2012",
"cdata_e_ora_inserimento":"2012-12-13T08:36:07Z",
"cidentificatore_in_openstreetmap":"2024374718",
"clongitudine":"7.7372603",
"clatitudine":"45.3148878"
}
,
{
"ccomune":"Rivoli",
"cprovincia":"TORINO",
"cregione":"Piemonte",
"cnome":"",
"canno_inserimento":"2012",
"cdata_e_ora_inserimento":"2012-08-04T13:57:49Z",
"cidentificatore_in_openstreetmap":"1851577714",
"clongitudine":"7.5081337",
"clatitudine":"45.0710935"
}
,
{
"ccomune":"Rivoli",
"cprovincia":"TORINO",
"cregione":"Piemonte",
"cnome":"",
"canno_inserimento":"2014",
"cdata_e_ora_inserimento":"2014-07-05T11:07:38Z",
"cidentificatore_in_openstreetmap":"2619167764",
"clongitudine":"7.5241573",
"clatitudine":"45.0684034"
}
,
{
"ccomune":"Rivoli",
"cprovincia":"TORINO",
"cregione":"Piemonte",
"cnome":"Conad",
"canno_inserimento":"2014",
"cdata_e_ora_inserimento":"2014-11-22T21:50:41Z",
"cidentificatore_in_openstreetmap":"1819237017",
"clongitudine":"7.548605",
"clatitudine":"45.0717851"
}
,
{
"ccomune":"Rivoli",
"cprovincia":"TORINO",
"cregione":"Piemonte",
"cnome":"Coop",
"canno_inserimento":"2014",
"cdata_e_ora_inserimento":"2014-03-19T17:47:11Z",
"cidentificatore_in_openstreetmap":"2727277623",
"clongitudine":"7.52218",
"clatitudine":"45.0738083999999"
}
,
{
"ccomune":"Rivoli",
"cprovincia":"TORINO",
"cregione":"Piemonte",
"cnome":"Crai",
"canno_inserimento":"2014",
"cdata_e_ora_inserimento":"2014-09-18T21:07:49Z",
"cidentificatore_in_openstreetmap":"3085272497",
"clongitudine":"7.518598",
"clatitudine":"45.0764402"
}
,
{
"ccomune":"Rivoli",
"cprovincia":"TORINO",
"cregione":"Piemonte",
"cnome":"Crai",
"canno_inserimento":"2015",
"cdata_e_ora_inserimento":"2015-11-21T17:07:45Z",
"cidentificatore_in_openstreetmap":"2992837028",
"clongitudine":"7.5148609",
"clatitudine":"45.0799109"
}
,
{
"ccomune":"San Benigno Canavese",
"cprovincia":"TORINO",
"cregione":"Piemonte",
"cnome":"Conad",
"canno_inserimento":"2011",
"cdata_e_ora_inserimento":"2011-02-19T10:27:49Z",
"cidentificatore_in_openstreetmap":"1160990026",
"clongitudine":"7.7790748",
"clatitudine":"45.2268814999999"
}
,
{
"ccomune":"Sangano",
"cprovincia":"TORINO",
"cregione":"Piemonte",
"cnome":"minimarket CRAI",
"canno_inserimento":"2014",
"cdata_e_ora_inserimento":"2014-01-26T20:21:26Z",
"cidentificatore_in_openstreetmap":"2638931477",
"clongitudine":"7.4533857",
"clatitudine":"45.0255337999999"
}
,
{
"ccomune":"San Giorgio Canavese",
"cprovincia":"TORINO",
"cregione":"Piemonte",
"cnome":"Supermercato di Galetto",
"canno_inserimento":"2014",
"cdata_e_ora_inserimento":"2014-07-01T21:54:56Z",
"cidentificatore_in_openstreetmap":"2942678077",
"clongitudine":"7.7936664",
"clatitudine":"45.3328015"
}
,
{
"ccomune":"San Mauro Torinese",
"cprovincia":"TORINO",
"cregione":"Piemonte",
"cnome":"Famila",
"canno_inserimento":"2014",
"cdata_e_ora_inserimento":"2014-10-02T21:29:53Z",
"cidentificatore_in_openstreetmap":"1278653257",
"clongitudine":"7.7512741",
"clatitudine":"45.1075425"
}
,
{
"ccomune":"Sant'Antonino di Susa",
"cprovincia":"TORINO",
"cregione":"Piemonte",
"cnome":"é il mio mercato",
"canno_inserimento":"2013",
"cdata_e_ora_inserimento":"2013-09-11T14:21:09Z",
"cidentificatore_in_openstreetmap":"2454160848",
"clongitudine":"7.2577773",
"clatitudine":"45.1083134"
}
,
{
"ccomune":"Sant'Antonino di Susa",
"cprovincia":"TORINO",
"cregione":"Piemonte",
"cnome":"Ekom",
"canno_inserimento":"2012",
"cdata_e_ora_inserimento":"2012-05-07T13:03:53Z",
"cidentificatore_in_openstreetmap":"1334924235",
"clongitudine":"7.2700523",
"clatitudine":"45.1085064999999"
}
,
{
"ccomune":"Sant'Antonino di Susa",
"cprovincia":"TORINO",
"cregione":"Piemonte",
"cnome":"Eurospin",
"canno_inserimento":"2011",
"cdata_e_ora_inserimento":"2011-03-23T20:51:58Z",
"cidentificatore_in_openstreetmap":"732832971",
"clongitudine":"7.2602248",
"clatitudine":"45.108378"
}
,
{
"ccomune":"Santena",
"cprovincia":"TORINO",
"cregione":"Piemonte",
"cnome":"",
"canno_inserimento":"2012",
"cdata_e_ora_inserimento":"2012-02-18T14:28:12Z",
"cidentificatore_in_openstreetmap":"1637729098",
"clongitudine":"7.7924666",
"clatitudine":"44.9552892999999"
}
,
{
"ccomune":"Santena",
"cprovincia":"TORINO",
"cregione":"Piemonte",
"cnome":"",
"canno_inserimento":"2012",
"cdata_e_ora_inserimento":"2012-02-18T14:28:17Z",
"cidentificatore_in_openstreetmap":"845434647",
"clongitudine":"7.7913556",
"clatitudine":"44.9557524"
}
,
{
"ccomune":"Santena",
"cprovincia":"TORINO",
"cregione":"Piemonte",
"cnome":"",
"canno_inserimento":"2013",
"cdata_e_ora_inserimento":"2013-01-21T11:48:26Z",
"cidentificatore_in_openstreetmap":"2122432723",
"clongitudine":"7.7907364",
"clatitudine":"44.9544639"
}
,
{
"ccomune":"Santena",
"cprovincia":"TORINO",
"cregione":"Piemonte",
"cnome":"",
"canno_inserimento":"2013",
"cdata_e_ora_inserimento":"2013-01-27T20:59:00Z",
"cidentificatore_in_openstreetmap":"2131438401",
"clongitudine":"7.78424",
"clatitudine":"44.9519404999999"
}
,
{
"ccomune":"Santena",
"cprovincia":"TORINO",
"cregione":"Piemonte",
"cnome":"",
"canno_inserimento":"2014",
"cdata_e_ora_inserimento":"2014-05-14T19:34:50Z",
"cidentificatore_in_openstreetmap":"2858739426",
"clongitudine":"7.7876403",
"clatitudine":"44.9547417"
}
,
{
"ccomune":"Sauze d'Oulx",
"cprovincia":"TORINO",
"cregione":"Piemonte",
"cnome":"Carrefour",
"canno_inserimento":"2015",
"cdata_e_ora_inserimento":"2015-01-22T18:10:05Z",
"cidentificatore_in_openstreetmap":"3304632122",
"clongitudine":"6.8588157",
"clatitudine":"45.0265534999999"
}
,
{
"ccomune":"Sauze d'Oulx",
"cprovincia":"TORINO",
"cregione":"Piemonte",
"cnome":"Dì per Dì",
"canno_inserimento":"2010",
"cdata_e_ora_inserimento":"2010-07-23T16:56:06Z",
"cidentificatore_in_openstreetmap":"687483603",
"clongitudine":"6.8604429",
"clatitudine":"45.0271873"
}
,
{
"ccomune":"Sestriere",
"cprovincia":"TORINO",
"cregione":"Piemonte",
"cnome":"Detta Antonio",
"canno_inserimento":"2013",
"cdata_e_ora_inserimento":"2013-06-28T19:07:22Z",
"cidentificatore_in_openstreetmap":"2364751383",
"clongitudine":"6.8790241",
"clatitudine":"44.9584819999999"
}
,
{
"ccomune":"Sestriere",
"cprovincia":"TORINO",
"cregione":"Piemonte",
"cnome":"Gasperin Dario",
"canno_inserimento":"2013",
"cdata_e_ora_inserimento":"2013-06-28T19:07:22Z",
"cidentificatore_in_openstreetmap":"2364751384",
"clongitudine":"6.8791153",
"clatitudine":"44.9575502"
}
,
{
"ccomune":"Settimo Torinese",
"cprovincia":"TORINO",
"cregione":"Piemonte",
"cnome":"Nat & Bio",
"canno_inserimento":"2014",
"cdata_e_ora_inserimento":"2014-07-09T20:18:10Z",
"cidentificatore_in_openstreetmap":"2956258049",
"clongitudine":"7.7333357",
"clatitudine":"45.1391201"
}
,
{
"ccomune":"Strambino",
"cprovincia":"TORINO",
"cregione":"Piemonte",
"cnome":"Strambino 2",
"canno_inserimento":"2010",
"cdata_e_ora_inserimento":"2010-10-23T21:44:13Z",
"cidentificatore_in_openstreetmap":"962288164",
"clongitudine":"7.8762143",
"clatitudine":"45.3806762999999"
}
,
{
"ccomune":"Susa",
"cprovincia":"TORINO",
"cregione":"Piemonte",
"cnome":"Carrefour Express",
"canno_inserimento":"2015",
"cdata_e_ora_inserimento":"2015-09-10T22:36:30Z",
"cidentificatore_in_openstreetmap":"2791049622",
"clongitudine":"7.0499936",
"clatitudine":"45.1384525"
}
,
{
"ccomune":"Susa",
"cprovincia":"TORINO",
"cregione":"Piemonte",
"cnome":"Crai",
"canno_inserimento":"2015",
"cdata_e_ora_inserimento":"2015-03-30T08:19:24Z",
"cidentificatore_in_openstreetmap":"1356152734",
"clongitudine":"7.0487017",
"clatitudine":"45.1372873999999"
}
,
{
"ccomune":"Torino",
"cprovincia":"TORINO",
"cregione":"Piemonte",
"cnome":"",
"canno_inserimento":"2008",
"cdata_e_ora_inserimento":"2008-10-30T13:51:51Z",
"cidentificatore_in_openstreetmap":"308766641",
"clongitudine":"7.6989657",
"clatitudine":"45.0690904"
}
,
{
"ccomune":"Torino",
"cprovincia":"TORINO",
"cregione":"Piemonte",
"cnome":"",
"canno_inserimento":"2008",
"cdata_e_ora_inserimento":"2008-10-30T13:55:28Z",
"cidentificatore_in_openstreetmap":"246819268",
"clongitudine":"7.7036213",
"clatitudine":"45.0923795"
}
,
{
"ccomune":"Torino",
"cprovincia":"TORINO",
"cregione":"Piemonte",
"cnome":"",
"canno_inserimento":"2008",
"cdata_e_ora_inserimento":"2008-10-30T13:58:04Z",
"cidentificatore_in_openstreetmap":"308767146",
"clongitudine":"7.7141297",
"clatitudine":"45.0939971999999"
}
,
{
"ccomune":"Torino",
"cprovincia":"TORINO",
"cregione":"Piemonte",
"cnome":"",
"canno_inserimento":"2013",
"cdata_e_ora_inserimento":"2013-01-16T08:26:36Z",
"cidentificatore_in_openstreetmap":"2113384994",
"clongitudine":"7.6486421",
"clatitudine":"45.0656177999999"
}
,
{
"ccomune":"Torino",
"cprovincia":"TORINO",
"cregione":"Piemonte",
"cnome":"",
"canno_inserimento":"2013",
"cdata_e_ora_inserimento":"2013-03-18T20:35:10Z",
"cidentificatore_in_openstreetmap":"2208919906",
"clongitudine":"7.6220159",
"clatitudine":"45.071787"
}
,
{
"ccomune":"Torino",
"cprovincia":"TORINO",
"cregione":"Piemonte",
"cnome":"",
"canno_inserimento":"2013",
"cdata_e_ora_inserimento":"2013-05-09T15:09:45Z",
"cidentificatore_in_openstreetmap":"2297175602",
"clongitudine":"7.6528065",
"clatitudine":"45.0739003999999"
}
,
{
"ccomune":"Torino",
"cprovincia":"TORINO",
"cregione":"Piemonte",
"cnome":"",
"canno_inserimento":"2013",
"cdata_e_ora_inserimento":"2013-06-07T07:13:10Z",
"cidentificatore_in_openstreetmap":"1156852372",
"clongitudine":"7.6255219",
"clatitudine":"45.0398493"
}
,
{
"ccomune":"Torino",
"cprovincia":"TORINO",
"cregione":"Piemonte",
"cnome":"",
"canno_inserimento":"2013",
"cdata_e_ora_inserimento":"2013-10-22T19:50:49Z",
"cidentificatore_in_openstreetmap":"2505306903",
"clongitudine":"7.6627566",
"clatitudine":"45.1018875999999"
}
,
{
"ccomune":"Torino",
"cprovincia":"TORINO",
"cregione":"Piemonte",
"cnome":"",
"canno_inserimento":"2014",
"cdata_e_ora_inserimento":"2014-06-27T12:09:22Z",
"cidentificatore_in_openstreetmap":"308766624",
"clongitudine":"7.6987576",
"clatitudine":"45.0679780999999"
}
,
{
"ccomune":"Torino",
"cprovincia":"TORINO",
"cregione":"Piemonte",
"cnome":"",
"canno_inserimento":"2014",
"cdata_e_ora_inserimento":"2014-07-09T19:54:19Z",
"cidentificatore_in_openstreetmap":"1278653276",
"clongitudine":"7.7400107",
"clatitudine":"45.1020893999999"
}
,
{
"ccomune":"Torino",
"cprovincia":"TORINO",
"cregione":"Piemonte",
"cnome":"",
"canno_inserimento":"2014",
"cdata_e_ora_inserimento":"2014-10-25T15:42:07Z",
"cidentificatore_in_openstreetmap":"3149296280",
"clongitudine":"7.633238",
"clatitudine":"45.068145"
}
,
{
"ccomune":"Torino",
"cprovincia":"TORINO",
"cregione":"Piemonte",
"cnome":"",
"canno_inserimento":"2014",
"cdata_e_ora_inserimento":"2014-11-24T15:53:14Z",
"cidentificatore_in_openstreetmap":"3203168648",
"clongitudine":"7.6315968",
"clatitudine":"45.0774029999999"
}
,
{
"ccomune":"Torino",
"cprovincia":"TORINO",
"cregione":"Piemonte",
"cnome":"",
"canno_inserimento":"2015",
"cdata_e_ora_inserimento":"2015-02-12T21:16:53Z",
"cidentificatore_in_openstreetmap":"308766786",
"clongitudine":"7.696069",
"clatitudine":"45.0712572999999"
}
,
{
"ccomune":"Torino",
"cprovincia":"TORINO",
"cregione":"Piemonte",
"cnome":"Basco",
"canno_inserimento":"2016",
"cdata_e_ora_inserimento":"2016-01-26T16:08:23Z",
"cidentificatore_in_openstreetmap":"3968704153",
"clongitudine":"7.6411753",
"clatitudine":"45.0222802999999"
}
,
{
"ccomune":"Torino",
"cprovincia":"TORINO",
"cregione":"Piemonte",
"cnome":"Bennet",
"canno_inserimento":"2013",
"cdata_e_ora_inserimento":"2013-04-20T12:17:41Z",
"cidentificatore_in_openstreetmap":"1606296516",
"clongitudine":"7.6699678",
"clatitudine":"45.093684"
}
,
{
"ccomune":"Torino",
"cprovincia":"TORINO",
"cregione":"Piemonte",
"cnome":"Bennet",
"canno_inserimento":"2014",
"cdata_e_ora_inserimento":"2014-05-20T16:19:09Z",
"cidentificatore_in_openstreetmap":"2524443635",
"clongitudine":"7.6573171",
"clatitudine":"45.0364214"
}
,
{
"ccomune":"Torino",
"cprovincia":"TORINO",
"cregione":"Piemonte",
"cnome":"Bennet San Paolo",
"canno_inserimento":"2013",
"cdata_e_ora_inserimento":"2013-01-15T15:08:25Z",
"cidentificatore_in_openstreetmap":"2112400133",
"clongitudine":"7.6413128",
"clatitudine":"45.0595536"
}
,
{
"ccomune":"Torino",
"cprovincia":"TORINO",
"cregione":"Piemonte",
"cnome":"Carrefour Express",
"canno_inserimento":"2011",
"cdata_e_ora_inserimento":"2011-01-27T19:10:05Z",
"cidentificatore_in_openstreetmap":"1123729885",
"clongitudine":"7.7292347",
"clatitudine":"45.1003247"
}
,
{
"ccomune":"Torino",
"cprovincia":"TORINO",
"cregione":"Piemonte",
"cnome":"Carrefour Express",
"canno_inserimento":"2011",
"cdata_e_ora_inserimento":"2011-03-22T22:43:33Z",
"cidentificatore_in_openstreetmap":"1214095349",
"clongitudine":"7.6738034",
"clatitudine":"45.0579638"
}
,
{
"ccomune":"Torino",
"cprovincia":"TORINO",
"cregione":"Piemonte",
"cnome":"Carrefour Express",
"canno_inserimento":"2011",
"cdata_e_ora_inserimento":"2011-10-14T19:52:49Z",
"cidentificatore_in_openstreetmap":"1467593765",
"clongitudine":"7.6811933",
"clatitudine":"45.06103"
}
,
{
"ccomune":"Torino",
"cprovincia":"TORINO",
"cregione":"Piemonte",
"cnome":"Carrefour Express",
"canno_inserimento":"2012",
"cdata_e_ora_inserimento":"2012-12-02T20:36:11Z",
"cidentificatore_in_openstreetmap":"1467473566",
"clongitudine":"7.6784616",
"clatitudine":"45.0533276"
}
,
{
"ccomune":"Torino",
"cprovincia":"TORINO",
"cregione":"Piemonte",
"cnome":"Carrefour Express",
"canno_inserimento":"2015",
"cdata_e_ora_inserimento":"2015-09-07T16:41:32Z",
"cidentificatore_in_openstreetmap":"2282337368",
"clongitudine":"7.6778646",
"clatitudine":"45.0644929999999"
}
,
{
"ccomune":"Torino",
"cprovincia":"TORINO",
"cregione":"Piemonte",
"cnome":"Carrefour Market",
"canno_inserimento":"2010",
"cdata_e_ora_inserimento":"2010-08-04T22:47:27Z",
"cidentificatore_in_openstreetmap":"846432654",
"clongitudine":"7.6683551",
"clatitudine":"45.0521868"
}
,
{
"ccomune":"Torino",
"cprovincia":"TORINO",
"cregione":"Piemonte",
"cnome":"Carrefour Market",
"canno_inserimento":"2011",
"cdata_e_ora_inserimento":"2011-03-22T22:43:48Z",
"cidentificatore_in_openstreetmap":"1213514908",
"clongitudine":"7.6608449",
"clatitudine":"45.0577114"
}
,
{
"ccomune":"Torino",
"cprovincia":"TORINO",
"cregione":"Piemonte",
"cnome":"Carrefour Market",
"canno_inserimento":"2015",
"cdata_e_ora_inserimento":"2015-06-09T08:04:14Z",
"cidentificatore_in_openstreetmap":"3147953803",
"clongitudine":"7.6494139",
"clatitudine":"45.0511845999999"
}
,
{
"ccomune":"Torino",
"cprovincia":"TORINO",
"cregione":"Piemonte",
"cnome":"Crai",
"canno_inserimento":"2014",
"cdata_e_ora_inserimento":"2014-09-27T09:18:33Z",
"cidentificatore_in_openstreetmap":"3097780245",
"clongitudine":"7.7190509",
"clatitudine":"45.0733308"
}
,
{
"ccomune":"Torino",
"cprovincia":"TORINO",
"cregione":"Piemonte",
"cnome":"Crai",
"canno_inserimento":"2015",
"cdata_e_ora_inserimento":"2015-01-29T18:15:50Z",
"cidentificatore_in_openstreetmap":"3319380061",
"clongitudine":"7.6626968",
"clatitudine":"45.0203123"
}
,
{
"ccomune":"Torino",
"cprovincia":"TORINO",
"cregione":"Piemonte",
"cnome":"Crai",
"canno_inserimento":"2015",
"cdata_e_ora_inserimento":"2015-02-18T10:39:44Z",
"cidentificatore_in_openstreetmap":"2284343485",
"clongitudine":"7.6784357",
"clatitudine":"45.0691314999999"
}
,
{
"ccomune":"Torino",
"cprovincia":"TORINO",
"cregione":"Piemonte",
"cnome":"Crai",
"canno_inserimento":"2015",
"cdata_e_ora_inserimento":"2015-10-24T19:33:10Z",
"cidentificatore_in_openstreetmap":"3796799641",
"clongitudine":"7.6381708",
"clatitudine":"45.0730626"
}
,
{
"ccomune":"Torino",
"cprovincia":"TORINO",
"cregione":"Piemonte",
"cnome":"Crai",
"canno_inserimento":"2016",
"cdata_e_ora_inserimento":"2016-01-14T13:27:14Z",
"cidentificatore_in_openstreetmap":"3945673181",
"clongitudine":"7.6424653",
"clatitudine":"45.0760569999999"
}
,
{
"ccomune":"Torino",
"cprovincia":"TORINO",
"cregione":"Piemonte",
"cnome":"CRAI",
"canno_inserimento":"2011",
"cdata_e_ora_inserimento":"2011-10-14T10:59:00Z",
"cidentificatore_in_openstreetmap":"1466778754",
"clongitudine":"7.6828733",
"clatitudine":"45.0594169"
}
,
{
"ccomune":"Torino",
"cprovincia":"TORINO",
"cregione":"Piemonte",
"cnome":"CRAI",
"canno_inserimento":"2011",
"cdata_e_ora_inserimento":"2011-10-14T19:52:49Z",
"cidentificatore_in_openstreetmap":"1467593764",
"clongitudine":"7.6810514",
"clatitudine":"45.0589906"
}
,
{
"ccomune":"Torino",
"cprovincia":"TORINO",
"cregione":"Piemonte",
"cnome":"Crios",
"canno_inserimento":"2011",
"cdata_e_ora_inserimento":"2011-07-24T00:04:33Z",
"cidentificatore_in_openstreetmap":"1371723270",
"clongitudine":"7.6689058",
"clatitudine":"45.0362075999999"
}
,
{
"ccomune":"Torino",
"cprovincia":"TORINO",
"cregione":"Piemonte",
"cnome":"DICO",
"canno_inserimento":"2013",
"cdata_e_ora_inserimento":"2013-01-05T20:22:14Z",
"cidentificatore_in_openstreetmap":"2096881477",
"clongitudine":"7.6779624",
"clatitudine":"45.0857801"
}
,
{
"ccomune":"Torino",
"cprovincia":"TORINO",
"cregione":"Piemonte",
"cnome":"Eataly",
"canno_inserimento":"2011",
"cdata_e_ora_inserimento":"2011-11-02T23:19:20Z",
"cidentificatore_in_openstreetmap":"1478015126",
"clongitudine":"7.6838666",
"clatitudine":"45.0672915999999"
}
,
{
"ccomune":"Torino",
"cprovincia":"TORINO",
"cregione":"Piemonte",
"cnome":"è il mio mercato",
"canno_inserimento":"2011",
"cdata_e_ora_inserimento":"2011-01-27T19:10:06Z",
"cidentificatore_in_openstreetmap":"1123729890",
"clongitudine":"7.7330649",
"clatitudine":"45.1007942999999"
}
,
{
"ccomune":"Torino",
"cprovincia":"TORINO",
"cregione":"Piemonte",
"cnome":"E.Leclerc - Conad",
"canno_inserimento":"2015",
"cdata_e_ora_inserimento":"2015-09-08T14:39:27Z",
"cidentificatore_in_openstreetmap":"1819376790",
"clongitudine":"7.6440611",
"clatitudine":"45.1096635"
}
,
{
"ccomune":"Torino",
"cprovincia":"TORINO",
"cregione":"Piemonte",
"cnome":"Esselunga",
"canno_inserimento":"2012",
"cdata_e_ora_inserimento":"2012-12-14T16:31:22Z",
"cidentificatore_in_openstreetmap":"1932156557",
"clongitudine":"7.6527812",
"clatitudine":"45.0222276"
}
,
{
"ccomune":"Torino",
"cprovincia":"TORINO",
"cregione":"Piemonte",
"cnome":"Etnic Market",
"canno_inserimento":"2013",
"cdata_e_ora_inserimento":"2013-10-16T16:22:36Z",
"cidentificatore_in_openstreetmap":"1199240721",
"clongitudine":"7.6822746",
"clatitudine":"45.0782073999999"
}
,
{
"ccomune":"Torino",
"cprovincia":"TORINO",
"cregione":"Piemonte",
"cnome":"Euronics",
"canno_inserimento":"2012",
"cdata_e_ora_inserimento":"2012-12-03T20:26:51Z",
"cidentificatore_in_openstreetmap":"2048718648",
"clongitudine":"7.6432066",
"clatitudine":"45.1115690999999"
}
,
{
"ccomune":"Torino",
"cprovincia":"TORINO",
"cregione":"Piemonte",
"cnome":"Eurospin",
"canno_inserimento":"2014",
"cdata_e_ora_inserimento":"2014-03-04T00:25:51Z",
"cidentificatore_in_openstreetmap":"1286900458",
"clongitudine":"7.6506251",
"clatitudine":"45.0581152999999"
}
,
{
"ccomune":"Torino",
"cprovincia":"TORINO",
"cregione":"Piemonte",
"cnome":"EuroSpin",
"canno_inserimento":"2013",
"cdata_e_ora_inserimento":"2013-12-05T16:45:38Z",
"cidentificatore_in_openstreetmap":"1738101948",
"clongitudine":"7.6221944",
"clatitudine":"45.0669133999999"
}
,
{
"ccomune":"Torino",
"cprovincia":"TORINO",
"cregione":"Piemonte",
"cnome":"Famila",
"canno_inserimento":"2011",
"cdata_e_ora_inserimento":"2011-02-16T22:02:50Z",
"cidentificatore_in_openstreetmap":"1156852432",
"clongitudine":"7.6207969",
"clatitudine":"45.0411247999999"
}
,
{
"ccomune":"Torino",
"cprovincia":"TORINO",
"cregione":"Piemonte",
"cnome":"Fruttolandia",
"canno_inserimento":"2016",
"cdata_e_ora_inserimento":"2016-01-15T23:25:49Z",
"cidentificatore_in_openstreetmap":"3949043830",
"clongitudine":"7.7255705",
"clatitudine":"45.102511"
}
,
{
"ccomune":"Torino",
"cprovincia":"TORINO",
"cregione":"Piemonte",
"cnome":"Il Ghiottone",
"canno_inserimento":"2014",
"cdata_e_ora_inserimento":"2014-11-15T18:22:58Z",
"cidentificatore_in_openstreetmap":"2297023209",
"clongitudine":"7.6527116",
"clatitudine":"45.0702275"
}
,
{
"ccomune":"Torino",
"cprovincia":"TORINO",
"cregione":"Piemonte",
"cnome":"il Gigante",
"canno_inserimento":"2012",
"cdata_e_ora_inserimento":"2012-02-26T10:47:58Z",
"cidentificatore_in_openstreetmap":"1606297862",
"clongitudine":"7.672861",
"clatitudine":"45.0906975999999"
}
,
{
"ccomune":"Torino",
"cprovincia":"TORINO",
"cregione":"Piemonte",
"cnome":"Il Gigante",
"canno_inserimento":"2013",
"cdata_e_ora_inserimento":"2013-01-06T10:27:08Z",
"cidentificatore_in_openstreetmap":"1932218388",
"clongitudine":"7.6833595",
"clatitudine":"45.0900826"
}
,
{
"ccomune":"Torino",
"cprovincia":"TORINO",
"cregione":"Piemonte",
"cnome":"In Piedi",
"canno_inserimento":"2013",
"cdata_e_ora_inserimento":"2013-11-25T10:49:38Z",
"cidentificatore_in_openstreetmap":"2550290193",
"clongitudine":"7.6705259",
"clatitudine":"45.092922"
}
,
{
"ccomune":"Torino",
"cprovincia":"TORINO",
"cregione":"Piemonte",
"cnome":"In's",
"canno_inserimento":"2013",
"cdata_e_ora_inserimento":"2013-05-09T13:28:55Z",
"cidentificatore_in_openstreetmap":"2297024730",
"clongitudine":"7.652349",
"clatitudine":"45.0692876999999"
}
,
{
"ccomune":"Torino",
"cprovincia":"TORINO",
"cregione":"Piemonte",
"cnome":"In's",
"canno_inserimento":"2016",
"cdata_e_ora_inserimento":"2016-02-11T11:02:33Z",
"cidentificatore_in_openstreetmap":"4000470387",
"clongitudine":"7.6323185",
"clatitudine":"45.0193628999999"
}
,
{
"ccomune":"Torino",
"cprovincia":"TORINO",
"cregione":"Piemonte",
"cnome":"iN's Mercato",
"canno_inserimento":"2014",
"cdata_e_ora_inserimento":"2014-10-24T19:12:59Z",
"cidentificatore_in_openstreetmap":"1209198027",
"clongitudine":"7.6497562",
"clatitudine":"45.0513084"
}
,
{
"ccomune":"Torino",
"cprovincia":"TORINO",
"cregione":"Piemonte",
"cnome":"iN's Mercato",
"canno_inserimento":"2015",
"cdata_e_ora_inserimento":"2015-08-16T17:50:16Z",
"cidentificatore_in_openstreetmap":"3700083323",
"clongitudine":"7.63903",
"clatitudine":"45.0744381"
}
,
{
"ccomune":"Torino",
"cprovincia":"TORINO",
"cregione":"Piemonte",
"cnome":"iN's Mercato",
"canno_inserimento":"2016",
"cdata_e_ora_inserimento":"2016-02-20T14:15:49Z",
"cidentificatore_in_openstreetmap":"3918256757",
"clongitudine":"7.6445223",
"clatitudine":"45.0801097"
}
,
{
"ccomune":"Torino",
"cprovincia":"TORINO",
"cregione":"Piemonte",
"cnome":"IperCoop",
"canno_inserimento":"2012",
"cdata_e_ora_inserimento":"2012-11-16T06:55:54Z",
"cidentificatore_in_openstreetmap":"2016152362",
"clongitudine":"7.6687764",
"clatitudine":"45.0875837"
}
,
{
"ccomune":"Torino",
"cprovincia":"TORINO",
"cregione":"Piemonte",
"cnome":"Jolly Crai",
"canno_inserimento":"2015",
"cdata_e_ora_inserimento":"2015-08-27T22:14:02Z",
"cidentificatore_in_openstreetmap":"3717631933",
"clongitudine":"7.6362187",
"clatitudine":"45.0673724999999"
}
,
{
"ccomune":"Torino",
"cprovincia":"TORINO",
"cregione":"Piemonte",
"cnome":"LD Market",
"canno_inserimento":"2011",
"cdata_e_ora_inserimento":"2011-01-27T19:10:06Z",
"cidentificatore_in_openstreetmap":"1123729889",
"clongitudine":"7.7289343",
"clatitudine":"45.1003171999999"
}
,
{
"ccomune":"Torino",
"cprovincia":"TORINO",
"cregione":"Piemonte",
"cnome":"Lidl",
"canno_inserimento":"2011",
"cdata_e_ora_inserimento":"2011-03-14T21:27:02Z",
"cidentificatore_in_openstreetmap":"1202156147",
"clongitudine":"7.6234736",
"clatitudine":"45.0688152999999"
}
,
{
"ccomune":"Torino",
"cprovincia":"TORINO",
"cregione":"Piemonte",
"cnome":"Lidl",
"canno_inserimento":"2013",
"cdata_e_ora_inserimento":"2013-06-28T20:24:35Z",
"cidentificatore_in_openstreetmap":"1168929616",
"clongitudine":"7.6840939",
"clatitudine":"45.0656923"
}
,
{
"ccomune":"Torino",
"cprovincia":"TORINO",
"cregione":"Piemonte",
"cnome":"Lidl corso Mortara",
"canno_inserimento":"2014",
"cdata_e_ora_inserimento":"2014-08-25T09:00:08Z",
"cidentificatore_in_openstreetmap":"3040796478",
"clongitudine":"7.6767163",
"clatitudine":"45.0904415999999"
}
,
{
"ccomune":"Torino",
"cprovincia":"TORINO",
"cregione":"Piemonte",
"cnome":"Ossola SAS",
"canno_inserimento":"2013",
"cdata_e_ora_inserimento":"2013-11-20T09:09:47Z",
"cidentificatore_in_openstreetmap":"2541013709",
"clongitudine":"7.6979902",
"clatitudine":"45.0713256"
}
,
{
"ccomune":"Torino",
"cprovincia":"TORINO",
"cregione":"Piemonte",
"cnome":"PAM",
"canno_inserimento":"2011",
"cdata_e_ora_inserimento":"2011-10-06T19:52:43Z",
"cidentificatore_in_openstreetmap":"1114770976",
"clongitudine":"7.66576",
"clatitudine":"45.0348972"
}
,
{
"ccomune":"Torino",
"cprovincia":"TORINO",
"cregione":"Piemonte",
"cnome":"Picard Surgelati",
"canno_inserimento":"2015",
"cdata_e_ora_inserimento":"2015-12-30T13:38:25Z",
"cidentificatore_in_openstreetmap":"3918582464",
"clongitudine":"7.6513515",
"clatitudine":"45.0800425999999"
}
,
{
"ccomune":"Torino",
"cprovincia":"TORINO",
"cregione":"Piemonte",
"cnome":"Pittarello",
"canno_inserimento":"2014",
"cdata_e_ora_inserimento":"2014-08-25T09:01:35Z",
"cidentificatore_in_openstreetmap":"3040798041",
"clongitudine":"7.6704303",
"clatitudine":"45.0941931999999"
}
,
{
"ccomune":"Torino",
"cprovincia":"TORINO",
"cregione":"Piemonte",
"cnome":"Prestofresco",
"canno_inserimento":"2015",
"cdata_e_ora_inserimento":"2015-12-18T18:24:24Z",
"cidentificatore_in_openstreetmap":"630543232",
"clongitudine":"7.6715305",
"clatitudine":"45.0413825999999"
}
,
{
"ccomune":"Torino",
"cprovincia":"TORINO",
"cregione":"Piemonte",
"cnome":"S.G. Perez di Marrocco L.",
"canno_inserimento":"2015",
"cdata_e_ora_inserimento":"2015-08-11T15:39:53Z",
"cidentificatore_in_openstreetmap":"3691603679",
"clongitudine":"7.6259448",
"clatitudine":"45.0394119999999"
}
,
{
"ccomune":"Torino",
"cprovincia":"TORINO",
"cregione":"Piemonte",
"cnome":"Simpatia CRAI",
"canno_inserimento":"2015",
"cdata_e_ora_inserimento":"2015-12-16T14:00:13Z",
"cidentificatore_in_openstreetmap":"3895139696",
"clongitudine":"7.6760417",
"clatitudine":"45.0545686"
}
,
{
"ccomune":"Torino",
"cprovincia":"TORINO",
"cregione":"Piemonte",
"cnome":"Simply",
"canno_inserimento":"2012",
"cdata_e_ora_inserimento":"2012-02-11T00:02:38Z",
"cidentificatore_in_openstreetmap":"1621048902",
"clongitudine":"7.6574912",
"clatitudine":"45.0526223999999"
}
,
{
"ccomune":"Torino",
"cprovincia":"TORINO",
"cregione":"Piemonte",
"cnome":"Simply Market",
"canno_inserimento":"2015",
"cdata_e_ora_inserimento":"2015-10-21T11:18:15Z",
"cidentificatore_in_openstreetmap":"3796799642",
"clongitudine":"7.6389862",
"clatitudine":"45.0735759"
}
,
{
"ccomune":"Torino",
"cprovincia":"TORINO",
"cregione":"Piemonte",
"cnome":"Simply Market",
"canno_inserimento":"2015",
"cdata_e_ora_inserimento":"2015-10-31T12:38:41Z",
"cidentificatore_in_openstreetmap":"3811084203",
"clongitudine":"7.7082699",
"clatitudine":"45.0638549999999"
}
,
{
"ccomune":"Torino",
"cprovincia":"TORINO",
"cregione":"Piemonte",
"cnome":"Simply Market",
"canno_inserimento":"2015",
"cdata_e_ora_inserimento":"2015-12-28T16:46:45Z",
"cidentificatore_in_openstreetmap":"3914907329",
"clongitudine":"7.6406581",
"clatitudine":"45.0777021999999"
}
,
{
"ccomune":"Torino",
"cprovincia":"TORINO",
"cregione":"Piemonte",
"cnome":"Supermercato Pam",
"canno_inserimento":"2015",
"cdata_e_ora_inserimento":"2015-12-30T13:38:25Z",
"cidentificatore_in_openstreetmap":"3918582463",
"clongitudine":"7.6507743",
"clatitudine":"45.080545"
}
,
{
"ccomune":"Torino",
"cprovincia":"TORINO",
"cregione":"Piemonte",
"cnome":"Supermercato Sigma",
"canno_inserimento":"2016",
"cdata_e_ora_inserimento":"2016-02-20T14:15:48Z",
"cidentificatore_in_openstreetmap":"3918256758",
"clongitudine":"7.6446235",
"clatitudine":"45.0805537999999"
}
,
{
"ccomune":"Torino",
"cprovincia":"TORINO",
"cregione":"Piemonte",
"cnome":"Tuttofresco",
"canno_inserimento":"2014",
"cdata_e_ora_inserimento":"2014-07-09T10:37:46Z",
"cidentificatore_in_openstreetmap":"2955604709",
"clongitudine":"7.6185095",
"clatitudine":"45.0403504"
}
,
{
"ccomune":"Torino",
"cprovincia":"TORINO",
"cregione":"Piemonte",
"cnome":"U2",
"canno_inserimento":"2016",
"cdata_e_ora_inserimento":"2016-01-16T17:06:15Z",
"cidentificatore_in_openstreetmap":"3203021593",
"clongitudine":"7.6303237",
"clatitudine":"45.0778663999999"
}
,
{
"ccomune":"Torino",
"cprovincia":"TORINO",
"cregione":"Piemonte",
"cnome":"U2",
"canno_inserimento":"2016",
"cdata_e_ora_inserimento":"2016-01-16T17:06:15Z",
"cidentificatore_in_openstreetmap":"3950187260",
"clongitudine":"7.6304143",
"clatitudine":"45.0738416"
}
,
{
"ccomune":"Torino",
"cprovincia":"TORINO",
"cregione":"Piemonte",
"cnome":"Unes",
"canno_inserimento":"2009",
"cdata_e_ora_inserimento":"2009-07-25T08:07:54Z",
"cidentificatore_in_openstreetmap":"447726429",
"clongitudine":"7.6077706",
"clatitudine":"45.0713842999999"
}
,
{
"ccomune":"Torrazza Piemonte",
"cprovincia":"TORINO",
"cregione":"Piemonte",
"cnome":"Conad",
"canno_inserimento":"2012",
"cdata_e_ora_inserimento":"2012-07-05T11:51:15Z",
"cidentificatore_in_openstreetmap":"1812143245",
"clongitudine":"7.9782012",
"clatitudine":"45.2181731"
}
,
{
"ccomune":"Torre Pellice",
"cprovincia":"TORINO",
"cregione":"Piemonte",
"cnome":"Despar",
"canno_inserimento":"2012",
"cdata_e_ora_inserimento":"2012-07-23T16:54:26Z",
"cidentificatore_in_openstreetmap":"1835546345",
"clongitudine":"7.2234312",
"clatitudine":"44.8196713"
}
,
{
"ccomune":"Torre Pellice",
"cprovincia":"TORINO",
"cregione":"Piemonte",
"cnome":"Ok market",
"canno_inserimento":"2012",
"cdata_e_ora_inserimento":"2012-11-27T10:19:25Z",
"cidentificatore_in_openstreetmap":"1835546346",
"clongitudine":"7.2233388",
"clatitudine":"44.8183286"
}
,
{
"ccomune":"Trofarello",
"cprovincia":"TORINO",
"cregione":"Piemonte",
"cnome":"",
"canno_inserimento":"2012",
"cdata_e_ora_inserimento":"2012-09-28T11:20:51Z",
"cidentificatore_in_openstreetmap":"1936625989",
"clongitudine":"7.7379514",
"clatitudine":"44.9803839"
}
,
{
"ccomune":"Trofarello",
"cprovincia":"TORINO",
"cregione":"Piemonte",
"cnome":"Continente / Carrefour",
"canno_inserimento":"2012",
"cdata_e_ora_inserimento":"2012-09-28T10:48:02Z",
"cidentificatore_in_openstreetmap":"632210912",
"clongitudine":"7.7530549",
"clatitudine":"44.9775281"
}
,
{
"ccomune":"Trofarello",
"cprovincia":"TORINO",
"cregione":"Piemonte",
"cnome":"Non Solo Materassi",
"canno_inserimento":"2012",
"cdata_e_ora_inserimento":"2012-09-28T11:23:28Z",
"cidentificatore_in_openstreetmap":"1936631795",
"clongitudine":"7.7382706",
"clatitudine":"44.9804237"
}
,
{
"ccomune":"Venaria Reale",
"cprovincia":"TORINO",
"cregione":"Piemonte",
"cnome":"",
"canno_inserimento":"2012",
"cdata_e_ora_inserimento":"2012-05-18T23:38:18Z",
"cidentificatore_in_openstreetmap":"1757798704",
"clongitudine":"7.6506414",
"clatitudine":"45.1248878999999"
}
,
{
"ccomune":"Venaria Reale",
"cprovincia":"TORINO",
"cregione":"Piemonte",
"cnome":"Borello",
"canno_inserimento":"2014",
"cdata_e_ora_inserimento":"2014-06-06T09:59:45Z",
"cidentificatore_in_openstreetmap":"1637452165",
"clongitudine":"7.6311876",
"clatitudine":"45.1326121"
}
,
{
"ccomune":"Venaria Reale",
"cprovincia":"TORINO",
"cregione":"Piemonte",
"cnome":"D più",
"canno_inserimento":"2012",
"cdata_e_ora_inserimento":"2012-05-18T23:38:15Z",
"cidentificatore_in_openstreetmap":"1757798625",
"clongitudine":"7.6446752",
"clatitudine":"45.1274576"
}
,
{
"ccomune":"Venaria Reale",
"cprovincia":"TORINO",
"cregione":"Piemonte",
"cnome":"Ekom",
"canno_inserimento":"2012",
"cdata_e_ora_inserimento":"2012-02-18T08:48:20Z",
"cidentificatore_in_openstreetmap":"1637452166",
"clongitudine":"7.6407872",
"clatitudine":"45.1286178"
}
,
{
"ccomune":"Villar Dora",
"cprovincia":"TORINO",
"cregione":"Piemonte",
"cnome":"CRAI Villardora",
"canno_inserimento":"2014",
"cdata_e_ora_inserimento":"2014-08-29T19:59:30Z",
"cidentificatore_in_openstreetmap":"3049462936",
"clongitudine":"7.3831028",
"clatitudine":"45.1163036"
}
,
{
"ccomune":"Alagna Valsesia",
"cprovincia":"VERCELLI",
"cregione":"Piemonte",
"cnome":"",
"canno_inserimento":"2014",
"cdata_e_ora_inserimento":"2014-06-16T19:16:20Z",
"cidentificatore_in_openstreetmap":"2919171331",
"clongitudine":"7.9373679",
"clatitudine":"45.8533063"
}
,
{
"ccomune":"Moncrivello",
"cprovincia":"VERCELLI",
"cregione":"Piemonte",
"cnome":"Briko",
"canno_inserimento":"2010",
"cdata_e_ora_inserimento":"2010-04-03T19:05:05Z",
"cidentificatore_in_openstreetmap":"683471034",
"clongitudine":"8.029753",
"clatitudine":"45.3186139999999"
}
,
{
"ccomune":"Rimasco",
"cprovincia":"VERCELLI",
"cregione":"Piemonte",
"cnome":"",
"canno_inserimento":"2015",
"cdata_e_ora_inserimento":"2015-11-09T13:23:40Z",
"cidentificatore_in_openstreetmap":"3826588282",
"clongitudine":"8.06292219999999",
"clatitudine":"45.8582791999999"
}
,
{
"ccomune":"Riva Valdobbia",
"cprovincia":"VERCELLI",
"cregione":"Piemonte",
"cnome":"Betty Food Alimentari",
"canno_inserimento":"2015",
"cdata_e_ora_inserimento":"2015-01-19T20:48:26Z",
"cidentificatore_in_openstreetmap":"3249973001",
"clongitudine":"7.9540558",
"clatitudine":"45.8329700999999"
}
,
{
"ccomune":"Santhia'",
"cprovincia":"VERCELLI",
"cregione":"Piemonte",
"cnome":"COOP",
"canno_inserimento":"2013",
"cdata_e_ora_inserimento":"2013-02-07T13:10:55Z",
"cidentificatore_in_openstreetmap":"2013592648",
"clongitudine":"8.1735523",
"clatitudine":"45.3633085"
}
,
{
"ccomune":"Santhia'",
"cprovincia":"VERCELLI",
"cregione":"Piemonte",
"cnome":"MD",
"canno_inserimento":"2014",
"cdata_e_ora_inserimento":"2014-11-27T23:00:39Z",
"cidentificatore_in_openstreetmap":"3208378046",
"clongitudine":"8.17549709999999",
"clatitudine":"45.370716"
}
,
{
"ccomune":"Trino",
"cprovincia":"VERCELLI",
"cregione":"Piemonte",
"cnome":"",
"canno_inserimento":"2012",
"cdata_e_ora_inserimento":"2012-10-29T20:38:20Z",
"cidentificatore_in_openstreetmap":"1988783776",
"clongitudine":"8.2968812",
"clatitudine":"45.1957813"
}
,
{
"ccomune":"Trino",
"cprovincia":"VERCELLI",
"cregione":"Piemonte",
"cnome":"Coop",
"canno_inserimento":"2014",
"cdata_e_ora_inserimento":"2014-01-31T09:43:03Z",
"cidentificatore_in_openstreetmap":"2642328791",
"clongitudine":"8.2970048",
"clatitudine":"45.1918562999999"
}
,
{
"ccomune":"Varallo",
"cprovincia":"VERCELLI",
"cregione":"Piemonte",
"cnome":"Conad",
"canno_inserimento":"2014",
"cdata_e_ora_inserimento":"2014-01-18T16:13:00Z",
"cidentificatore_in_openstreetmap":"2627228396",
"clongitudine":"8.2580679",
"clatitudine":"45.8140265999999"
}
,
{
"ccomune":"Varallo",
"cprovincia":"VERCELLI",
"cregione":"Piemonte",
"cnome":"U!",
"canno_inserimento":"2014",
"cdata_e_ora_inserimento":"2014-09-16T18:51:49Z",
"cidentificatore_in_openstreetmap":"3080655736",
"clongitudine":"8.2593703",
"clatitudine":"45.8147275999999"
}
,
{
"ccomune":"Vercelli",
"cprovincia":"VERCELLI",
"cregione":"Piemonte",
"cnome":"",
"canno_inserimento":"2012",
"cdata_e_ora_inserimento":"2012-02-27T16:17:11Z",
"cidentificatore_in_openstreetmap":"1650478435",
"clongitudine":"8.4136867",
"clatitudine":"45.3238370999999"
}
,
{
"ccomune":"Vercelli",
"cprovincia":"VERCELLI",
"cregione":"Piemonte",
"cnome":"",
"canno_inserimento":"2013",
"cdata_e_ora_inserimento":"2013-12-11T20:20:17Z",
"cidentificatore_in_openstreetmap":"2576228561",
"clongitudine":"8.42655049999999",
"clatitudine":"45.3138878"
}
,
{
"ccomune":"Vercelli",
"cprovincia":"VERCELLI",
"cregione":"Piemonte",
"cnome":"A&O",
"canno_inserimento":"2013",
"cdata_e_ora_inserimento":"2013-08-05T10:28:38Z",
"cidentificatore_in_openstreetmap":"2407746327",
"clongitudine":"8.4157473",
"clatitudine":"45.3233047"
}
,
{
"ccomune":"Vercelli",
"cprovincia":"VERCELLI",
"cregione":"Piemonte",
"cnome":"Asia Market",
"canno_inserimento":"2013",
"cdata_e_ora_inserimento":"2013-12-05T21:39:50Z",
"cidentificatore_in_openstreetmap":"2567091408",
"clongitudine":"8.4167161",
"clatitudine":"45.3287827999999"
}
,
{
"ccomune":"Vercelli",
"cprovincia":"VERCELLI",
"cregione":"Piemonte",
"cnome":"Bio Celia",
"canno_inserimento":"2013",
"cdata_e_ora_inserimento":"2013-12-11T16:42:37Z",
"cidentificatore_in_openstreetmap":"2575965166",
"clongitudine":"8.4226402",
"clatitudine":"45.3260414"
}
,
{
"ccomune":"Vercelli",
"cprovincia":"VERCELLI",
"cregione":"Piemonte",
"cnome":"Carrefour Express",
"canno_inserimento":"2015",
"cdata_e_ora_inserimento":"2015-02-23T11:38:45Z",
"cidentificatore_in_openstreetmap":"3367914470",
"clongitudine":"8.42411019999999",
"clatitudine":"45.3252585999999"
}
,
{
"ccomune":"Vercelli",
"cprovincia":"VERCELLI",
"cregione":"Piemonte",
"cnome":"Carrefour Market",
"canno_inserimento":"2015",
"cdata_e_ora_inserimento":"2015-06-26T11:17:29Z",
"cidentificatore_in_openstreetmap":"1491482966",
"clongitudine":"8.4201943",
"clatitudine":"45.3219461999999"
}
,
{
"ccomune":"Vercelli",
"cprovincia":"VERCELLI",
"cregione":"Piemonte",
"cnome":"Imai Market City",
"canno_inserimento":"2013",
"cdata_e_ora_inserimento":"2013-12-01T11:48:34Z",
"cidentificatore_in_openstreetmap":"2559676811",
"clongitudine":"8.43333389999999",
"clatitudine":"45.3197199999999"
}
,
{
"ccomune":"Vercelli",
"cprovincia":"VERCELLI",
"cregione":"Piemonte",
"cnome":"iN's",
"canno_inserimento":"2013",
"cdata_e_ora_inserimento":"2013-12-02T17:39:28Z",
"cidentificatore_in_openstreetmap":"2561706581",
"clongitudine":"8.4275422",
"clatitudine":"45.3218639999999"
}
,
{
"ccomune":"Vercelli",
"cprovincia":"VERCELLI",
"cregione":"Piemonte",
"cnome":"Penny Market",
"canno_inserimento":"2011",
"cdata_e_ora_inserimento":"2011-09-27T10:25:16Z",
"cidentificatore_in_openstreetmap":"1446887440",
"clongitudine":"8.4053859",
"clatitudine":"45.3231352999999"
}
,
{
"ccomune":"Vercelli",
"cprovincia":"VERCELLI",
"cregione":"Piemonte",
"cnome":"Riseria Baucero Vendita al Dettaglio",
"canno_inserimento":"2013",
"cdata_e_ora_inserimento":"2013-07-03T07:15:59Z",
"cidentificatore_in_openstreetmap":"2371548417",
"clongitudine":"8.446947",
"clatitudine":"45.3069065999999"
}
,
{
"ccomune":"Vercelli",
"cprovincia":"VERCELLI",
"cregione":"Piemonte",
"cnome":"Supermercato Bennet",
"canno_inserimento":"2012",
"cdata_e_ora_inserimento":"2012-02-27T16:17:11Z",
"cidentificatore_in_openstreetmap":"1650478431",
"clongitudine":"8.4069683",
"clatitudine":"45.3334487999999"
}
,
{
"ccomune":"Vercelli",
"cprovincia":"VERCELLI",
"cregione":"Piemonte",
"cnome":"Supermercato Carrefour",
"canno_inserimento":"2012",
"cdata_e_ora_inserimento":"2012-02-27T16:17:15Z",
"cidentificatore_in_openstreetmap":"499620964",
"clongitudine":"8.3934446",
"clatitudine":"45.3195985999999"
}
,
{
"ccomune":"Ameno",
"cprovincia":"NOVARA",
"cregione":"Piemonte",
"cnome":"",
"canno_inserimento":"2014",
"cdata_e_ora_inserimento":"2014-10-24T15:28:48Z",
"cidentificatore_in_openstreetmap":"3147614052",
"clongitudine":"8.4293868",
"clatitudine":"45.7869996"
}
,
{
"ccomune":"Ameno",
"cprovincia":"NOVARA",
"cregione":"Piemonte",
"cnome":"",
"canno_inserimento":"2014",
"cdata_e_ora_inserimento":"2014-10-24T15:28:48Z",
"cidentificatore_in_openstreetmap":"3147614058",
"clongitudine":"8.44028969999999",
"clatitudine":"45.7885712"
}
,
{
"ccomune":"Armeno",
"cprovincia":"NOVARA",
"cregione":"Piemonte",
"cnome":"Savoini",
"canno_inserimento":"2014",
"cdata_e_ora_inserimento":"2014-06-23T07:08:29Z",
"cidentificatore_in_openstreetmap":"2928827200",
"clongitudine":"8.4427138",
"clatitudine":"45.8190317999999"
}
,
{
"ccomune":"Bellinzago Novarese",
"cprovincia":"NOVARA",
"cregione":"Piemonte",
"cnome":"Bennet",
"canno_inserimento":"2014",
"cdata_e_ora_inserimento":"2014-09-23T11:51:14Z",
"cidentificatore_in_openstreetmap":"2145291058",
"clongitudine":"8.64222039999999",
"clatitudine":"45.5539801999999"
}
,
{
"ccomune":"Cameri",
"cprovincia":"NOVARA",
"cregione":"Piemonte",
"cnome":"Coop Cameri",
"canno_inserimento":"2014",
"cdata_e_ora_inserimento":"2014-04-03T16:30:45Z",
"cidentificatore_in_openstreetmap":"2764569370",
"clongitudine":"8.6663576",
"clatitudine":"45.5061019999999"
}
,
{
"ccomune":"Cameri",
"cprovincia":"NOVARA",
"cregione":"Piemonte",
"cnome":"Super Dì",
"canno_inserimento":"2014",
"cdata_e_ora_inserimento":"2014-01-15T08:38:54Z",
"cidentificatore_in_openstreetmap":"2620112199",
"clongitudine":"8.6302013",
"clatitudine":"45.4965575"
}
,
{
"ccomune":"Casalino",
"cprovincia":"NOVARA",
"cregione":"Piemonte",
"cnome":"",
"canno_inserimento":"2015",
"cdata_e_ora_inserimento":"2015-06-16T13:37:19Z",
"cidentificatore_in_openstreetmap":"3571004493",
"clongitudine":"8.5392338",
"clatitudine":"45.3970461999999"
}
,
{
"ccomune":"Castelletto Sopra Ticino",
"cprovincia":"NOVARA",
"cregione":"Piemonte",
"cnome":"Bennet",
"canno_inserimento":"2013",
"cdata_e_ora_inserimento":"2013-01-07T10:22:36Z",
"cidentificatore_in_openstreetmap":"2099528417",
"clongitudine":"8.6133246",
"clatitudine":"45.7206303999999"
}
,
{
"ccomune":"Castelletto Sopra Ticino",
"cprovincia":"NOVARA",
"cregione":"Piemonte",
"cnome":"Esselunga",
"canno_inserimento":"2015",
"cdata_e_ora_inserimento":"2015-09-21T12:36:46Z",
"cidentificatore_in_openstreetmap":"3752816869",
"clongitudine":"8.5899562",
"clatitudine":"45.7189683"
}
,
{
"ccomune":"Castelletto Sopra Ticino",
"cprovincia":"NOVARA",
"cregione":"Piemonte",
"cnome":"Outlet Dolciario",
"canno_inserimento":"2016",
"cdata_e_ora_inserimento":"2016-01-06T07:50:44Z",
"cidentificatore_in_openstreetmap":"3929934601",
"clongitudine":"8.6023209",
"clatitudine":"45.7196663"
}
,
{
"ccomune":"Dormelletto",
"cprovincia":"NOVARA",
"cregione":"Piemonte",
"cnome":"Penny",
"canno_inserimento":"2014",
"cdata_e_ora_inserimento":"2014-06-22T20:31:22Z",
"cidentificatore_in_openstreetmap":"2928120437",
"clongitudine":"8.5679757",
"clatitudine":"45.7413257999999"
}
,
{
"ccomune":"Galliate",
"cprovincia":"NOVARA",
"cregione":"Piemonte",
"cnome":"Billa",
"canno_inserimento":"2013",
"cdata_e_ora_inserimento":"2013-01-31T16:51:59Z",
"cidentificatore_in_openstreetmap":"2136220263",
"clongitudine":"8.70419459999999",
"clatitudine":"45.4698567"
}
,
{
"ccomune":"Galliate",
"cprovincia":"NOVARA",
"cregione":"Piemonte",
"cnome":"Centro Freschi",
"canno_inserimento":"2013",
"cdata_e_ora_inserimento":"2013-01-31T16:48:43Z",
"cidentificatore_in_openstreetmap":"2136216871",
"clongitudine":"8.70383509999999",
"clatitudine":"45.4691211999999"
}
,
{
"ccomune":"Galliate",
"cprovincia":"NOVARA",
"cregione":"Piemonte",
"cnome":"Dico",
"canno_inserimento":"2013",
"cdata_e_ora_inserimento":"2013-01-31T16:37:33Z",
"cidentificatore_in_openstreetmap":"2136205165",
"clongitudine":"8.70431529999999",
"clatitudine":"45.4688501999999"
}
,
{
"ccomune":"Galliate",
"cprovincia":"NOVARA",
"cregione":"Piemonte",
"cnome":"Ipercoop",
"canno_inserimento":"2013",
"cdata_e_ora_inserimento":"2013-01-11T16:23:59Z",
"cidentificatore_in_openstreetmap":"2105912786",
"clongitudine":"8.6900081",
"clatitudine":"45.4698976999999"
}
,
{
"ccomune":"Gattico",
"cprovincia":"NOVARA",
"cregione":"Piemonte",
"cnome":"Sigma",
"canno_inserimento":"2013",
"cdata_e_ora_inserimento":"2013-01-18T19:05:16Z",
"cidentificatore_in_openstreetmap":"2118175161",
"clongitudine":"8.5118714",
"clatitudine":"45.7096895"
}
,
{
"ccomune":"Ghemme",
"cprovincia":"NOVARA",
"cregione":"Piemonte",
"cnome":"",
"canno_inserimento":"2015",
"cdata_e_ora_inserimento":"2015-05-10T18:23:51Z",
"cidentificatore_in_openstreetmap":"3508915747",
"clongitudine":"8.4249721",
"clatitudine":"45.5945465"
}
,
{
"ccomune":"Miasino",
"cprovincia":"NOVARA",
"cregione":"Piemonte",
"cnome":"",
"canno_inserimento":"2014",
"cdata_e_ora_inserimento":"2014-10-24T19:31:15Z",
"cidentificatore_in_openstreetmap":"3147977808",
"clongitudine":"8.43027099999999",
"clatitudine":"45.8028545"
}
,
{
"ccomune":"Miasino",
"cprovincia":"NOVARA",
"cregione":"Piemonte",
"cnome":"Schlachter",
"canno_inserimento":"2014",
"cdata_e_ora_inserimento":"2014-10-24T19:31:15Z",
"cidentificatore_in_openstreetmap":"3147977809",
"clongitudine":"8.430808",
"clatitudine":"45.8020047999999"
}
,
{
"ccomune":"Novara",
"cprovincia":"NOVARA",
"cregione":"Piemonte",
"cnome":"Billa",
"canno_inserimento":"2013",
"cdata_e_ora_inserimento":"2013-02-20T09:52:46Z",
"cidentificatore_in_openstreetmap":"2163610953",
"clongitudine":"8.630429",
"clatitudine":"45.4462376"
}
,
{
"ccomune":"Novara",
"cprovincia":"NOVARA",
"cregione":"Piemonte",
"cnome":"Carrefour Market",
"canno_inserimento":"2012",
"cdata_e_ora_inserimento":"2012-04-05T11:18:56Z",
"cidentificatore_in_openstreetmap":"1702554869",
"clongitudine":"8.6089604",
"clatitudine":"45.4491074"
}
,
{
"ccomune":"Novara",
"cprovincia":"NOVARA",
"cregione":"Piemonte",
"cnome":"Carrefour Market",
"canno_inserimento":"2015",
"cdata_e_ora_inserimento":"2015-02-16T16:35:27Z",
"cidentificatore_in_openstreetmap":"3354352162",
"clongitudine":"8.6188529",
"clatitudine":"45.4554614999999"
}
,
{
"ccomune":"Novara",
"cprovincia":"NOVARA",
"cregione":"Piemonte",
"cnome":"Esselunga",
"canno_inserimento":"2014",
"cdata_e_ora_inserimento":"2014-05-27T07:24:58Z",
"cidentificatore_in_openstreetmap":"2876613206",
"clongitudine":"8.59356129999999",
"clatitudine":"45.4326203"
}
,
{
"ccomune":"Novara",
"cprovincia":"NOVARA",
"cregione":"Piemonte",
"cnome":"Ipercoop",
"canno_inserimento":"2012",
"cdata_e_ora_inserimento":"2012-11-27T09:10:18Z",
"cidentificatore_in_openstreetmap":"662221814",
"clongitudine":"8.6007611",
"clatitudine":"45.4459875"
}
,
{
"ccomune":"Novara",
"cprovincia":"NOVARA",
"cregione":"Piemonte",
"cnome":"Lidl",
"canno_inserimento":"2015",
"cdata_e_ora_inserimento":"2015-02-14T17:47:55Z",
"cidentificatore_in_openstreetmap":"3350429789",
"clongitudine":"8.6060772",
"clatitudine":"45.4371028999999"
}
,
{
"ccomune":"Novara",
"cprovincia":"NOVARA",
"cregione":"Piemonte",
"cnome":"Negozio Leggero",
"canno_inserimento":"2014",
"cdata_e_ora_inserimento":"2014-06-15T07:30:18Z",
"cidentificatore_in_openstreetmap":"2916045371",
"clongitudine":"8.61801829999999",
"clatitudine":"45.4402787"
}
,
{
"ccomune":"Novara",
"cprovincia":"NOVARA",
"cregione":"Piemonte",
"cnome":"Penny Market",
"canno_inserimento":"2015",
"cdata_e_ora_inserimento":"2015-02-16T16:35:27Z",
"cidentificatore_in_openstreetmap":"3354352160",
"clongitudine":"8.61515359999999",
"clatitudine":"45.4685337"
}
,
{
"ccomune":"Novara",
"cprovincia":"NOVARA",
"cregione":"Piemonte",
"cnome":"Tigros",
"canno_inserimento":"2015",
"cdata_e_ora_inserimento":"2015-07-30T14:17:21Z",
"cidentificatore_in_openstreetmap":"3236797297",
"clongitudine":"8.6187323",
"clatitudine":"45.4270801999999"
}
,
{
"ccomune":"Oleggio",
"cprovincia":"NOVARA",
"cregione":"Piemonte",
"cnome":"Coop",
"canno_inserimento":"2011",
"cdata_e_ora_inserimento":"2011-10-07T12:17:24Z",
"cidentificatore_in_openstreetmap":"913115337",
"clongitudine":"8.6409464",
"clatitudine":"45.5895038999999"
}
,
{
"ccomune":"Orta San Giulio",
"cprovincia":"NOVARA",
"cregione":"Piemonte",
"cnome":"",
"canno_inserimento":"2014",
"cdata_e_ora_inserimento":"2014-10-24T15:28:48Z",
"cidentificatore_in_openstreetmap":"3147614055",
"clongitudine":"8.422151",
"clatitudine":"45.7956951"
}
,
{
"ccomune":"Romentino",
"cprovincia":"NOVARA",
"cregione":"Piemonte",
"cnome":"",
"canno_inserimento":"2012",
"cdata_e_ora_inserimento":"2012-01-09T18:03:05Z",
"cidentificatore_in_openstreetmap":"1583899246",
"clongitudine":"8.7209609",
"clatitudine":"45.4619281"
}
,
{
"ccomune":"Trecate",
"cprovincia":"NOVARA",
"cregione":"Piemonte",
"cnome":"Centro Commerciale Coop",
"canno_inserimento":"2014",
"cdata_e_ora_inserimento":"2014-08-31T13:51:28Z",
"cidentificatore_in_openstreetmap":"2976438679",
"clongitudine":"8.7373528",
"clatitudine":"45.4350012"
}
,
{
"ccomune":"Trecate",
"cprovincia":"NOVARA",
"cregione":"Piemonte",
"cnome":"LD Market",
"canno_inserimento":"2014",
"cdata_e_ora_inserimento":"2014-07-21T17:27:32Z",
"cidentificatore_in_openstreetmap":"2973390242",
"clongitudine":"8.7170742",
"clatitudine":"45.4333724"
}
,
{
"ccomune":"Alba",
"cprovincia":"CUNEO",
"cregione":"Piemonte",
"cnome":"",
"canno_inserimento":"2013",
"cdata_e_ora_inserimento":"2013-06-03T14:37:24Z",
"cidentificatore_in_openstreetmap":"2330645359",
"clongitudine":"8.0345972",
"clatitudine":"44.6880469"
}
,
{
"ccomune":"Alba",
"cprovincia":"CUNEO",
"cregione":"Piemonte",
"cnome":"CONAD IMPERCATO",
"canno_inserimento":"2015",
"cdata_e_ora_inserimento":"2015-05-24T08:11:45Z",
"cidentificatore_in_openstreetmap":"1750856267",
"clongitudine":"8.03553559999999",
"clatitudine":"44.7176345"
}
,
{
"ccomune":"Alba",
"cprovincia":"CUNEO",
"cregione":"Piemonte",
"cnome":"Famila",
"canno_inserimento":"2015",
"cdata_e_ora_inserimento":"2015-04-04T12:15:13Z",
"cidentificatore_in_openstreetmap":"3437140143",
"clongitudine":"8.01174969999999",
"clatitudine":"44.6888109"
}
,
{
"ccomune":"Alba",
"cprovincia":"CUNEO",
"cregione":"Piemonte",
"cnome":"iN'S mercato",
"canno_inserimento":"2015",
"cdata_e_ora_inserimento":"2015-02-03T14:19:17Z",
"cidentificatore_in_openstreetmap":"3328448870",
"clongitudine":"8.02048199999999",
"clatitudine":"44.6910472"
}
,
{
"ccomune":"Alba",
"cprovincia":"CUNEO",
"cregione":"Piemonte",
"cnome":"Toysland",
"canno_inserimento":"2015",
"cdata_e_ora_inserimento":"2015-02-03T14:01:20Z",
"cidentificatore_in_openstreetmap":"3328431320",
"clongitudine":"8.01952829999999",
"clatitudine":"44.6901999999999"
}
,
{
"ccomune":"Bagnolo Piemonte",
"cprovincia":"CUNEO",
"cregione":"Piemonte",
"cnome":"",
"canno_inserimento":"2011",
"cdata_e_ora_inserimento":"2011-07-11T19:24:29Z",
"cidentificatore_in_openstreetmap":"1358160636",
"clongitudine":"7.2898283",
"clatitudine":"44.7527148"
}
,
{
"ccomune":"Bagnolo Piemonte",
"cprovincia":"CUNEO",
"cregione":"Piemonte",
"cnome":"",
"canno_inserimento":"2011",
"cdata_e_ora_inserimento":"2011-07-11T19:24:31Z",
"cidentificatore_in_openstreetmap":"1358160675",
"clongitudine":"7.3149862",
"clatitudine":"44.7623831"
}
,
{
"ccomune":"Bagnolo Piemonte",
"cprovincia":"CUNEO",
"cregione":"Piemonte",
"cnome":"",
"canno_inserimento":"2011",
"cdata_e_ora_inserimento":"2011-07-11T19:24:31Z",
"cidentificatore_in_openstreetmap":"1358160677",
"clongitudine":"7.3128056",
"clatitudine":"44.7632541999999"
}
,
{
"ccomune":"Barge",
"cprovincia":"CUNEO",
"cregione":"Piemonte",
"cnome":"OK MARKET",
"canno_inserimento":"2015",
"cdata_e_ora_inserimento":"2015-09-28T08:46:11Z",
"cidentificatore_in_openstreetmap":"3762281662",
"clongitudine":"7.3264162",
"clatitudine":"44.7285955999999"
}
,
{
"ccomune":"Bene Vagienna",
"cprovincia":"CUNEO",
"cregione":"Piemonte",
"cnome":"OK Market",
"canno_inserimento":"2015",
"cdata_e_ora_inserimento":"2015-07-06T07:19:41Z",
"cidentificatore_in_openstreetmap":"3636478935",
"clongitudine":"7.8317783",
"clatitudine":"44.5443788999999"
}
,
{
"ccomune":"Borgo San Dalmazzo",
"cprovincia":"CUNEO",
"cregione":"Piemonte",
"cnome":"",
"canno_inserimento":"2013",
"cdata_e_ora_inserimento":"2013-08-09T21:33:30Z",
"cidentificatore_in_openstreetmap":"2412584660",
"clongitudine":"7.4909759",
"clatitudine":"44.3308168"
}
,
{
"ccomune":"Borgo San Dalmazzo",
"cprovincia":"CUNEO",
"cregione":"Piemonte",
"cnome":"Dico",
"canno_inserimento":"2013",
"cdata_e_ora_inserimento":"2013-08-09T21:33:42Z",
"cidentificatore_in_openstreetmap":"1716770409",
"clongitudine":"7.5104987",
"clatitudine":"44.347123"
}
,
{
"ccomune":"Borgo San Dalmazzo",
"cprovincia":"CUNEO",
"cregione":"Piemonte",
"cnome":"In'S",
"canno_inserimento":"2013",
"cdata_e_ora_inserimento":"2013-08-18T07:17:55Z",
"cidentificatore_in_openstreetmap":"1716770191",
"clongitudine":"7.5023575",
"clatitudine":"44.3445528999999"
}
,
{
"ccomune":"Borgo San Dalmazzo",
"cprovincia":"CUNEO",
"cregione":"Piemonte",
"cnome":"Maxisconto",
"canno_inserimento":"2012",
"cdata_e_ora_inserimento":"2012-10-08T21:09:19Z",
"cidentificatore_in_openstreetmap":"1711427025",
"clongitudine":"7.4957218",
"clatitudine":"44.3343694"
}
,
{
"ccomune":"Borgo San Dalmazzo",
"cprovincia":"CUNEO",
"cregione":"Piemonte",
"cnome":"Unieuro",
"canno_inserimento":"2012",
"cdata_e_ora_inserimento":"2012-10-15T22:52:22Z",
"cidentificatore_in_openstreetmap":"1425019736",
"clongitudine":"7.5092303",
"clatitudine":"44.3472623999999"
}
,
{
"ccomune":"Boves",
"cprovincia":"CUNEO",
"cregione":"Piemonte",
"cnome":"Conad",
"canno_inserimento":"2012",
"cdata_e_ora_inserimento":"2012-04-09T13:08:57Z",
"cidentificatore_in_openstreetmap":"1708444997",
"clongitudine":"7.5551767",
"clatitudine":"44.3262750999999"
}
,
{
"ccomune":"Boves",
"cprovincia":"CUNEO",
"cregione":"Piemonte",
"cnome":"Dpiù",
"canno_inserimento":"2012",
"cdata_e_ora_inserimento":"2012-10-19T22:11:02Z",
"cidentificatore_in_openstreetmap":"1974404011",
"clongitudine":"7.5677406",
"clatitudine":"44.3328706"
}
,
{
"ccomune":"Centallo",
"cprovincia":"CUNEO",
"cregione":"Piemonte",
"cnome":"",
"canno_inserimento":"2012",
"cdata_e_ora_inserimento":"2012-04-21T18:52:49Z",
"cidentificatore_in_openstreetmap":"1725711730",
"clongitudine":"7.6057711",
"clatitudine":"44.4830437"
}
,
{
"ccomune":"Centallo",
"cprovincia":"CUNEO",
"cregione":"Piemonte",
"cnome":"InCoop",
"canno_inserimento":"2012",
"cdata_e_ora_inserimento":"2012-04-21T18:52:45Z",
"cidentificatore_in_openstreetmap":"1725711621",
"clongitudine":"7.5783451",
"clatitudine":"44.4922236999999"
}
,
{
"ccomune":"Dogliani",
"cprovincia":"CUNEO",
"cregione":"Piemonte",
"cnome":"",
"canno_inserimento":"2013",
"cdata_e_ora_inserimento":"2013-04-22T10:19:22Z",
"cidentificatore_in_openstreetmap":"2276782622",
"clongitudine":"7.9436619",
"clatitudine":"44.5302407"
}
,
{
"ccomune":"Dogliani",
"cprovincia":"CUNEO",
"cregione":"Piemonte",
"cnome":"",
"canno_inserimento":"2015",
"cdata_e_ora_inserimento":"2015-08-01T09:54:55Z",
"cidentificatore_in_openstreetmap":"2276782492",
"clongitudine":"7.9466543",
"clatitudine":"44.5325155"
}
,
{
"ccomune":"Dogliani",
"cprovincia":"CUNEO",
"cregione":"Piemonte",
"cnome":"Famila",
"canno_inserimento":"2013",
"cdata_e_ora_inserimento":"2013-12-23T13:35:37Z",
"cidentificatore_in_openstreetmap":"2591417215",
"clongitudine":"7.9362064",
"clatitudine":"44.5362270999999"
}
,
{
"ccomune":"Dogliani",
"cprovincia":"CUNEO",
"cregione":"Piemonte",
"cnome":"In's Mercato",
"canno_inserimento":"2013",
"cdata_e_ora_inserimento":"2013-05-30T09:07:20Z",
"cidentificatore_in_openstreetmap":"2276782321",
"clongitudine":"7.9525132",
"clatitudine":"44.5331011"
}
,
{
"ccomune":"Dronero",
"cprovincia":"CUNEO",
"cregione":"Piemonte",
"cnome":"Maxisconto",
"canno_inserimento":"2012",
"cdata_e_ora_inserimento":"2012-07-04T19:12:51Z",
"cidentificatore_in_openstreetmap":"1812994894",
"clongitudine":"7.3581373",
"clatitudine":"44.4685513"
}
,
{
"ccomune":"Dronero",
"cprovincia":"CUNEO",
"cregione":"Piemonte",
"cnome":"Punto SMA",
"canno_inserimento":"2015",
"cdata_e_ora_inserimento":"2015-01-12T17:52:32Z",
"cidentificatore_in_openstreetmap":"1382291505",
"clongitudine":"7.3681211",
"clatitudine":"44.4632372"
}
,
{
"ccomune":"Frabosa Sottana",
"cprovincia":"CUNEO",
"cregione":"Piemonte",
"cnome":"",
"canno_inserimento":"2013",
"cdata_e_ora_inserimento":"2013-09-17T16:59:16Z",
"cidentificatore_in_openstreetmap":"2461862566",
"clongitudine":"7.7973268",
"clatitudine":"44.3012264999999"
}
,
{
"ccomune":"Limone Piemonte",
"cprovincia":"CUNEO",
"cregione":"Piemonte",
"cnome":"",
"canno_inserimento":"2012",
"cdata_e_ora_inserimento":"2012-11-06T08:11:08Z",
"cidentificatore_in_openstreetmap":"1999639142",
"clongitudine":"7.5767857",
"clatitudine":"44.2016423"
}
,
{
"ccomune":"Limone Piemonte",
"cprovincia":"CUNEO",
"cregione":"Piemonte",
"cnome":"",
"canno_inserimento":"2012",
"cdata_e_ora_inserimento":"2012-11-06T08:11:08Z",
"cidentificatore_in_openstreetmap":"1999639146",
"clongitudine":"7.5767535",
"clatitudine":"44.2016269"
}
,
{
"ccomune":"Manta",
"cprovincia":"CUNEO",
"cregione":"Piemonte",
"cnome":"D-Piu Discount",
"canno_inserimento":"2011",
"cdata_e_ora_inserimento":"2011-12-07T23:18:57Z",
"cidentificatore_in_openstreetmap":"1535920546",
"clongitudine":"7.4867848",
"clatitudine":"44.6119600999999"
}
,
{
"ccomune":"Mondovi'",
"cprovincia":"CUNEO",
"cregione":"Piemonte",
"cnome":"Famila",
"canno_inserimento":"2012",
"cdata_e_ora_inserimento":"2012-12-06T19:00:08Z",
"cidentificatore_in_openstreetmap":"1161131041",
"clongitudine":"7.8113945",
"clatitudine":"44.3986061"
}
,
{
"ccomune":"Mondovi'",
"cprovincia":"CUNEO",
"cregione":"Piemonte",
"cnome":"In's",
"canno_inserimento":"2012",
"cdata_e_ora_inserimento":"2012-12-06T18:59:53Z",
"cidentificatore_in_openstreetmap":"2053202997",
"clongitudine":"7.8140554",
"clatitudine":"44.3958975999999"
}
,
{
"ccomune":"Mondovi'",
"cprovincia":"CUNEO",
"cregione":"Piemonte",
"cnome":"IPERCOOP Mondovicino",
"canno_inserimento":"2016",
"cdata_e_ora_inserimento":"2016-01-03T22:17:43Z",
"cidentificatore_in_openstreetmap":"1711279432",
"clongitudine":"7.8518638",
"clatitudine":"44.4193427"
}
,
{
"ccomune":"Mondovi'",
"cprovincia":"CUNEO",
"cregione":"Piemonte",
"cnome":"Lidl",
"canno_inserimento":"2013",
"cdata_e_ora_inserimento":"2013-03-20T13:27:57Z",
"cidentificatore_in_openstreetmap":"1161131030",
"clongitudine":"7.8139318",
"clatitudine":"44.3949456"
}
,
{
"ccomune":"Monesiglio",
"cprovincia":"CUNEO",
"cregione":"Piemonte",
"cnome":"",
"canno_inserimento":"2013",
"cdata_e_ora_inserimento":"2013-01-11T18:57:49Z",
"cidentificatore_in_openstreetmap":"2106184559",
"clongitudine":"8.11685589999999",
"clatitudine":"44.466875"
}
,
{
"ccomune":"Paesana",
"cprovincia":"CUNEO",
"cregione":"Piemonte",
"cnome":"Simply Market",
"canno_inserimento":"2012",
"cdata_e_ora_inserimento":"2012-06-25T20:39:01Z",
"cidentificatore_in_openstreetmap":"1802133177",
"clongitudine":"7.2821578",
"clatitudine":"44.6745817999999"
}
,
{
"ccomune":"Pontechianale",
"cprovincia":"CUNEO",
"cregione":"Piemonte",
"cnome":"",
"canno_inserimento":"2012",
"cdata_e_ora_inserimento":"2012-07-31T18:49:06Z",
"cidentificatore_in_openstreetmap":"1845886586",
"clongitudine":"7.0296238",
"clatitudine":"44.6222806"
}
,
{
"ccomune":"Prazzo",
"cprovincia":"CUNEO",
"cregione":"Piemonte",
"cnome":"",
"canno_inserimento":"2013",
"cdata_e_ora_inserimento":"2013-04-29T21:06:56Z",
"cidentificatore_in_openstreetmap":"2286124808",
"clongitudine":"7.0663442",
"clatitudine":"44.4848831999999"
}
,
{
"ccomune":"Roburent",
"cprovincia":"CUNEO",
"cregione":"Piemonte",
"cnome":"CRAI",
"canno_inserimento":"2016",
"cdata_e_ora_inserimento":"2016-01-11T07:02:31Z",
"cidentificatore_in_openstreetmap":"2443056340",
"clongitudine":"7.8760949",
"clatitudine":"44.2918404999999"
}
,
{
"ccomune":"Roccaforte Mondovi'",
"cprovincia":"CUNEO",
"cregione":"Piemonte",
"cnome":"",
"canno_inserimento":"2013",
"cdata_e_ora_inserimento":"2013-08-12T20:34:44Z",
"cidentificatore_in_openstreetmap":"247985794",
"clongitudine":"7.7083761",
"clatitudine":"44.3040249"
}
,
{
"ccomune":"Roccaforte Mondovi'",
"cprovincia":"CUNEO",
"cregione":"Piemonte",
"cnome":"Cesare e Rita alimentare",
"canno_inserimento":"2013",
"cdata_e_ora_inserimento":"2013-08-19T20:35:39Z",
"cidentificatore_in_openstreetmap":"246824462",
"clongitudine":"7.724276",
"clatitudine":"44.3126479"
}
,
{
"ccomune":"Rodello",
"cprovincia":"CUNEO",
"cregione":"Piemonte",
"cnome":"La Bottega di Patrizia",
"canno_inserimento":"2015",
"cdata_e_ora_inserimento":"2015-04-02T07:27:35Z",
"cidentificatore_in_openstreetmap":"3431221884",
"clongitudine":"8.0581776",
"clatitudine":"44.6299004999999"
}
,
{
"ccomune":"Saliceto",
"cprovincia":"CUNEO",
"cregione":"Piemonte",
"cnome":"Maxi. Al. Pecollo",
"canno_inserimento":"2013",
"cdata_e_ora_inserimento":"2013-01-11T19:44:27Z",
"cidentificatore_in_openstreetmap":"2106238863",
"clongitudine":"8.1669522",
"clatitudine":"44.4120478"
}
,
{
"ccomune":"Saluzzo",
"cprovincia":"CUNEO",
"cregione":"Piemonte",
"cnome":"Carrefour",
"canno_inserimento":"2011",
"cdata_e_ora_inserimento":"2011-10-19T12:41:56Z",
"cidentificatore_in_openstreetmap":"1473051281",
"clongitudine":"7.4975079",
"clatitudine":"44.6547942999999"
}
,
{
"ccomune":"Saluzzo",
"cprovincia":"CUNEO",
"cregione":"Piemonte",
"cnome":"Famila",
"canno_inserimento":"2012",
"cdata_e_ora_inserimento":"2012-03-29T02:24:28Z",
"cidentificatore_in_openstreetmap":"1695474154",
"clongitudine":"7.4909106",
"clatitudine":"44.6501524999999"
}
,
{
"ccomune":"Saluzzo",
"cprovincia":"CUNEO",
"cregione":"Piemonte",
"cnome":"LIDL",
"canno_inserimento":"2012",
"cdata_e_ora_inserimento":"2012-04-07T08:26:53Z",
"cidentificatore_in_openstreetmap":"1705458526",
"clongitudine":"7.4703439",
"clatitudine":"44.6460561999999"
}
,
{
"ccomune":"Valgrana",
"cprovincia":"CUNEO",
"cregione":"Piemonte",
"cnome":"coccinella market",
"canno_inserimento":"2015",
"cdata_e_ora_inserimento":"2015-05-15T12:58:18Z",
"cidentificatore_in_openstreetmap":"3519441030",
"clongitudine":"7.3808315",
"clatitudine":"44.4124358999999"
}
,
{
"ccomune":"Aramengo",
"cprovincia":"ASTI",
"cregione":"Piemonte",
"cnome":"",
"canno_inserimento":"2014",
"cdata_e_ora_inserimento":"2014-07-14T17:45:53Z",
"cidentificatore_in_openstreetmap":"2962951965",
"clongitudine":"8.00899989999999",
"clatitudine":"45.0826433"
}
,
{
"ccomune":"Asti",
"cprovincia":"ASTI",
"cregione":"Piemonte",
"cnome":"Carrefour Express",
"canno_inserimento":"2011",
"cdata_e_ora_inserimento":"2011-10-17T17:05:24Z",
"cidentificatore_in_openstreetmap":"1470915472",
"clongitudine":"8.2085737",
"clatitudine":"44.9000506"
}
,
{
"ccomune":"Asti",
"cprovincia":"ASTI",
"cregione":"Piemonte",
"cnome":"Carrefour Express",
"canno_inserimento":"2011",
"cdata_e_ora_inserimento":"2011-10-18T06:58:03Z",
"cidentificatore_in_openstreetmap":"1470664167",
"clongitudine":"8.2096532",
"clatitudine":"44.901777"
}
,
{
"ccomune":"Asti",
"cprovincia":"ASTI",
"cregione":"Piemonte",
"cnome":"Coop. Rava e Fava",
"canno_inserimento":"2014",
"cdata_e_ora_inserimento":"2014-08-22T15:13:52Z",
"cidentificatore_in_openstreetmap":"3034948621",
"clongitudine":"8.2248983",
"clatitudine":"44.9056672"
}
,
{
"ccomune":"Asti",
"cprovincia":"ASTI",
"cregione":"Piemonte",
"cnome":"Esselunga",
"canno_inserimento":"2013",
"cdata_e_ora_inserimento":"2013-01-18T09:07:59Z",
"cidentificatore_in_openstreetmap":"1404446872",
"clongitudine":"8.2240269",
"clatitudine":"44.9156979999999"
}
,
{
"ccomune":"Asti",
"cprovincia":"ASTI",
"cregione":"Piemonte",
"cnome":"Punto Simply",
"canno_inserimento":"2015",
"cdata_e_ora_inserimento":"2015-03-06T22:17:54Z",
"cidentificatore_in_openstreetmap":"2276914054",
"clongitudine":"8.2005852",
"clatitudine":"44.9090223999999"
}
,
{
"ccomune":"Asti",
"cprovincia":"ASTI",
"cregione":"Piemonte",
"cnome":"Punto Sma",
"canno_inserimento":"2011",
"cdata_e_ora_inserimento":"2011-10-15T15:32:28Z",
"cidentificatore_in_openstreetmap":"1468333820",
"clongitudine":"8.214798",
"clatitudine":"44.9034817"
}
,
{
"ccomune":"Asti",
"cprovincia":"ASTI",
"cregione":"Piemonte",
"cnome":"Punto Sma City",
"canno_inserimento":"2011",
"cdata_e_ora_inserimento":"2011-11-23T23:40:27Z",
"cidentificatore_in_openstreetmap":"1468310303",
"clongitudine":"8.2098074",
"clatitudine":"44.8961357"
}
,
{
"ccomune":"Buttigliera d'Asti",
"cprovincia":"ASTI",
"cregione":"Piemonte",
"cnome":"Mercatino",
"canno_inserimento":"2013",
"cdata_e_ora_inserimento":"2013-07-31T14:41:45Z",
"cidentificatore_in_openstreetmap":"2402549083",
"clongitudine":"7.9497972",
"clatitudine":"45.0213777"
}
,
{
"ccomune":"Buttigliera d'Asti",
"cprovincia":"ASTI",
"cregione":"Piemonte",
"cnome":"simply",
"canno_inserimento":"2013",
"cdata_e_ora_inserimento":"2013-07-31T14:41:47Z",
"cidentificatore_in_openstreetmap":"2402549234",
"clongitudine":"7.9508325",
"clatitudine":"45.0212587999999"
}
,
{
"ccomune":"Canelli",
"cprovincia":"ASTI",
"cregione":"Piemonte",
"cnome":"Lidl",
"canno_inserimento":"2013",
"cdata_e_ora_inserimento":"2013-06-10T10:21:42Z",
"cidentificatore_in_openstreetmap":"2339075499",
"clongitudine":"8.30141139999999",
"clatitudine":"44.7262685"
}
,
{
"ccomune":"Casorzo",
"cprovincia":"ASTI",
"cregione":"Piemonte",
"cnome":"",
"canno_inserimento":"2015",
"cdata_e_ora_inserimento":"2015-03-27T13:14:55Z",
"cidentificatore_in_openstreetmap":"3421493482",
"clongitudine":"8.336019",
"clatitudine":"45.0218063"
}
,
{
"ccomune":"Cocconato",
"cprovincia":"ASTI",
"cregione":"Piemonte",
"cnome":"SMA",
"canno_inserimento":"2010",
"cdata_e_ora_inserimento":"2010-10-05T00:03:59Z",
"cidentificatore_in_openstreetmap":"938139856",
"clongitudine":"8.0403676",
"clatitudine":"45.0863194"
}
,
{
"ccomune":"Moncalvo",
"cprovincia":"ASTI",
"cregione":"Piemonte",
"cnome":"Penny Market",
"canno_inserimento":"2013",
"cdata_e_ora_inserimento":"2013-06-24T06:37:51Z",
"cidentificatore_in_openstreetmap":"2358230743",
"clongitudine":"8.2755812",
"clatitudine":"45.0586898"
}
,
{
"ccomune":"Moncalvo",
"cprovincia":"ASTI",
"cregione":"Piemonte",
"cnome":"U2",
"canno_inserimento":"2013",
"cdata_e_ora_inserimento":"2013-06-24T06:37:38Z",
"cidentificatore_in_openstreetmap":"2358230742",
"clongitudine":"8.2778074",
"clatitudine":"45.0580758999999"
}
,
{
"ccomune":"Nizza Monferrato",
"cprovincia":"ASTI",
"cregione":"Piemonte",
"cnome":"",
"canno_inserimento":"2013",
"cdata_e_ora_inserimento":"2013-09-01T18:10:34Z",
"cidentificatore_in_openstreetmap":"2441709343",
"clongitudine":"8.35193029999999",
"clatitudine":"44.7724333"
}
,
{
"ccomune":"Nizza Monferrato",
"cprovincia":"ASTI",
"cregione":"Piemonte",
"cnome":"",
"canno_inserimento":"2013",
"cdata_e_ora_inserimento":"2013-09-01T18:10:34Z",
"cidentificatore_in_openstreetmap":"2441709346",
"clongitudine":"8.35364369999999",
"clatitudine":"44.7723276999999"
}
,
{
"ccomune":"San Damiano d'Asti",
"cprovincia":"ASTI",
"cregione":"Piemonte",
"cnome":"Carrefour Local",
"canno_inserimento":"2013",
"cdata_e_ora_inserimento":"2013-08-23T14:03:44Z",
"cidentificatore_in_openstreetmap":"2429203856",
"clongitudine":"8.0638364",
"clatitudine":"44.8334739"
}
,
{
"ccomune":"San Damiano d'Asti",
"cprovincia":"ASTI",
"cregione":"Piemonte",
"cnome":"Famila",
"canno_inserimento":"2014",
"cdata_e_ora_inserimento":"2014-12-19T22:10:29Z",
"cidentificatore_in_openstreetmap":"2429203853",
"clongitudine":"8.07046139999999",
"clatitudine":"44.8438622999999"
}
,
{
"ccomune":"San Damiano d'Asti",
"cprovincia":"ASTI",
"cregione":"Piemonte",
"cnome":"Penny Market",
"canno_inserimento":"2013",
"cdata_e_ora_inserimento":"2013-08-23T14:03:44Z",
"cidentificatore_in_openstreetmap":"2429203860",
"clongitudine":"8.0717966",
"clatitudine":"44.844155"
}
,
{
"ccomune":"Alessandria",
"cprovincia":"ALESSANDRIA",
"cregione":"Piemonte",
"cnome":"",
"canno_inserimento":"2011",
"cdata_e_ora_inserimento":"2011-01-27T21:11:03Z",
"cidentificatore_in_openstreetmap":"1123892032",
"clongitudine":"8.6350838",
"clatitudine":"44.9135022"
}
,
{
"ccomune":"Alessandria",
"cprovincia":"ALESSANDRIA",
"cregione":"Piemonte",
"cnome":"Basko",
"canno_inserimento":"2015",
"cdata_e_ora_inserimento":"2015-04-29T12:25:30Z",
"cidentificatore_in_openstreetmap":"3457037845",
"clongitudine":"8.6164016",
"clatitudine":"44.9116896999999"
}
,
{
"ccomune":"Alessandria",
"cprovincia":"ALESSANDRIA",
"cregione":"Piemonte",
"cnome":"Carrefour Express",
"canno_inserimento":"2015",
"cdata_e_ora_inserimento":"2015-04-22T11:31:02Z",
"cidentificatore_in_openstreetmap":"3471197702",
"clongitudine":"8.6053084",
"clatitudine":"44.9145471"
}
,
{
"ccomune":"Alessandria",
"cprovincia":"ALESSANDRIA",
"cregione":"Piemonte",
"cnome":"Costa Poco",
"canno_inserimento":"2015",
"cdata_e_ora_inserimento":"2015-06-15T08:47:50Z",
"cidentificatore_in_openstreetmap":"3595952320",
"clongitudine":"8.5841879",
"clatitudine":"44.8946244999999"
}
,
{
"ccomune":"Alessandria",
"cprovincia":"ALESSANDRIA",
"cregione":"Piemonte",
"cnome":"Gulliver",
"canno_inserimento":"2015",
"cdata_e_ora_inserimento":"2015-04-21T09:39:29Z",
"cidentificatore_in_openstreetmap":"1858677080",
"clongitudine":"8.62165459999999",
"clatitudine":"44.9123722"
}
,
{
"ccomune":"Alessandria",
"cprovincia":"ALESSANDRIA",
"cregione":"Piemonte",
"cnome":"Gulliver",
"canno_inserimento":"2015",
"cdata_e_ora_inserimento":"2015-06-19T08:04:03Z",
"cidentificatore_in_openstreetmap":"3604598674",
"clongitudine":"8.68207439999999",
"clatitudine":"44.8830513999999"
}
,
{
"ccomune":"Alessandria",
"cprovincia":"ALESSANDRIA",
"cregione":"Piemonte",
"cnome":"In's",
"canno_inserimento":"2015",
"cdata_e_ora_inserimento":"2015-07-08T08:49:46Z",
"cidentificatore_in_openstreetmap":"3640431747",
"clongitudine":"8.6029789",
"clatitudine":"44.8999689999999"
}
,
{
"ccomune":"Alessandria",
"cprovincia":"ALESSANDRIA",
"cregione":"Piemonte",
"cnome":"IN'S",
"canno_inserimento":"2015",
"cdata_e_ora_inserimento":"2015-06-11T08:57:06Z",
"cidentificatore_in_openstreetmap":"3587488467",
"clongitudine":"8.625816",
"clatitudine":"44.9040754999999"
}
,
{
"ccomune":"Alessandria",
"cprovincia":"ALESSANDRIA",
"cregione":"Piemonte",
"cnome":"la Bottega della Centrale del Latte",
"canno_inserimento":"2015",
"cdata_e_ora_inserimento":"2015-05-29T12:55:29Z",
"cidentificatore_in_openstreetmap":"3556356550",
"clongitudine":"8.6288934",
"clatitudine":"44.9141428"
}
,
{
"ccomune":"Alessandria",
"cprovincia":"ALESSANDRIA",
"cregione":"Piemonte",
"cnome":"LD Market",
"canno_inserimento":"2015",
"cdata_e_ora_inserimento":"2015-05-25T22:50:43Z",
"cidentificatore_in_openstreetmap":"3545484857",
"clongitudine":"8.6300834",
"clatitudine":"44.9134826"
}
,
{
"ccomune":"Alessandria",
"cprovincia":"ALESSANDRIA",
"cregione":"Piemonte",
"cnome":"LD Market",
"canno_inserimento":"2015",
"cdata_e_ora_inserimento":"2015-05-29T12:55:26Z",
"cidentificatore_in_openstreetmap":"3556356523",
"clongitudine":"8.6300892",
"clatitudine":"44.9134715"
}
,
{
"ccomune":"Alessandria",
"cprovincia":"ALESSANDRIA",
"cregione":"Piemonte",
"cnome":"Lidl",
"canno_inserimento":"2015",
"cdata_e_ora_inserimento":"2015-06-15T08:47:51Z",
"cidentificatore_in_openstreetmap":"3595952322",
"clongitudine":"8.5923526",
"clatitudine":"44.8942679999999"
}
,
{
"ccomune":"Alessandria",
"cprovincia":"ALESSANDRIA",
"cregione":"Piemonte",
"cnome":"Minimarket",
"canno_inserimento":"2015",
"cdata_e_ora_inserimento":"2015-06-29T10:19:37Z",
"cidentificatore_in_openstreetmap":"3624903169",
"clongitudine":"8.69039109999999",
"clatitudine":"44.9154253999999"
}
,
{
"ccomune":"Alessandria",
"cprovincia":"ALESSANDRIA",
"cregione":"Piemonte",
"cnome":"Mini Market",
"canno_inserimento":"2015",
"cdata_e_ora_inserimento":"2015-06-11T08:57:07Z",
"cidentificatore_in_openstreetmap":"3587488473",
"clongitudine":"8.61416419999999",
"clatitudine":"44.9041926"
}
,
{
"ccomune":"Alessandria",
"cprovincia":"ALESSANDRIA",
"cregione":"Piemonte",
"cnome":"Minimarket Frutta e Verdura",
"canno_inserimento":"2015",
"cdata_e_ora_inserimento":"2015-04-23T13:29:51Z",
"cidentificatore_in_openstreetmap":"1891567946",
"clongitudine":"8.6120335",
"clatitudine":"44.915768"
}
,
{
"ccomune":"Alessandria",
"cprovincia":"ALESSANDRIA",
"cregione":"Piemonte",
"cnome":"Minimarket SIGMA",
"canno_inserimento":"2015",
"cdata_e_ora_inserimento":"2015-05-06T10:58:27Z",
"cidentificatore_in_openstreetmap":"3456136066",
"clongitudine":"8.6102585",
"clatitudine":"44.9155334"
}
,
{
"ccomune":"Alessandria",
"cprovincia":"ALESSANDRIA",
"cregione":"Piemonte",
"cnome":"Mondofrutta",
"canno_inserimento":"2015",
"cdata_e_ora_inserimento":"2015-05-29T12:55:26Z",
"cidentificatore_in_openstreetmap":"3556356525",
"clongitudine":"8.6296589",
"clatitudine":"44.9133859"
}
,
{
"ccomune":"Alessandria",
"cprovincia":"ALESSANDRIA",
"cregione":"Piemonte",
"cnome":"Natura Si",
"canno_inserimento":"2015",
"cdata_e_ora_inserimento":"2015-06-12T07:56:57Z",
"cidentificatore_in_openstreetmap":"3589330515",
"clongitudine":"8.6173803",
"clatitudine":"44.9219469"
}
,
{
"ccomune":"Alessandria",
"cprovincia":"ALESSANDRIA",
"cregione":"Piemonte",
"cnome":"Pacto",
"canno_inserimento":"2011",
"cdata_e_ora_inserimento":"2011-06-21T14:39:04Z",
"cidentificatore_in_openstreetmap":"1333674194",
"clongitudine":"8.62461109999999",
"clatitudine":"44.9165938"
}
,
{
"ccomune":"Alessandria",
"cprovincia":"ALESSANDRIA",
"cregione":"Piemonte",
"cnome":"Panorama",
"canno_inserimento":"2013",
"cdata_e_ora_inserimento":"2013-04-29T08:26:40Z",
"cidentificatore_in_openstreetmap":"2285378477",
"clongitudine":"8.6330296",
"clatitudine":"44.9022355999999"
}
,
{
"ccomune":"Alessandria",
"cprovincia":"ALESSANDRIA",
"cregione":"Piemonte",
"cnome":"Prestofresco",
"canno_inserimento":"2015",
"cdata_e_ora_inserimento":"2015-06-19T08:04:07Z",
"cidentificatore_in_openstreetmap":"3604599293",
"clongitudine":"8.6897805",
"clatitudine":"44.881532"
}
,
{
"ccomune":"Alessandria",
"cprovincia":"ALESSANDRIA",
"cregione":"Piemonte",
"cnome":"Prestofresco",
"canno_inserimento":"2015",
"cdata_e_ora_inserimento":"2015-07-29T08:51:42Z",
"cidentificatore_in_openstreetmap":"3604599294",
"clongitudine":"8.6844196",
"clatitudine":"44.8858261999999"
}
,
{
"ccomune":"Alessandria",
"cprovincia":"ALESSANDRIA",
"cregione":"Piemonte",
"cnome":"Supermercato",
"canno_inserimento":"2015",
"cdata_e_ora_inserimento":"2015-03-16T10:33:08Z",
"cidentificatore_in_openstreetmap":"1858590412",
"clongitudine":"8.6147876",
"clatitudine":"44.9122770999999"
}
,
{
"ccomune":"Alessandria",
"cprovincia":"ALESSANDRIA",
"cregione":"Piemonte",
"cnome":"Supermercato Costa poco",
"canno_inserimento":"2015",
"cdata_e_ora_inserimento":"2015-04-17T10:35:12Z",
"cidentificatore_in_openstreetmap":"3461367901",
"clongitudine":"8.623866",
"clatitudine":"44.9089472"
}
,
{
"ccomune":"Alessandria",
"cprovincia":"ALESSANDRIA",
"cregione":"Piemonte",
"cnome":"Surgelati",
"canno_inserimento":"2015",
"cdata_e_ora_inserimento":"2015-01-18T20:19:36Z",
"cidentificatore_in_openstreetmap":"1858361947",
"clongitudine":"8.6236294",
"clatitudine":"44.9135992"
}
,
{
"ccomune":"Alessandria",
"cprovincia":"ALESSANDRIA",
"cregione":"Piemonte",
"cnome":"Unes",
"canno_inserimento":"2014",
"cdata_e_ora_inserimento":"2014-06-19T13:53:21Z",
"cidentificatore_in_openstreetmap":"2923490120",
"clongitudine":"8.6240897",
"clatitudine":"44.9116454999999"
}
